[
  {
    "Station ID": "1",
    "Complex ID": "1",
    "GTFS Stop ID": "R01",
    "Division": "BMT",
    "Line": "Astoria",
    "Stop Name": "Astoria - Ditmars Blvd",
    "Borough": "Q",
    "Daytime Routes": "N W",
    "Structure": "Elevated",
    "GTFS Latitude": "40.775036",
    "GTFS Longitude": "-73.912034"
  },
  {
    "Station ID": "2",
    "Complex ID": "2",
    "GTFS Stop ID": "R03",
    "Division": "BMT",
    "Line": "Astoria",
    "Stop Name": "Astoria Blvd",
    "Borough": "Q",
    "Daytime Routes": "N W",
    "Structure": "Elevated",
    "GTFS Latitude": "40.770258",
    "GTFS Longitude": "-73.917843"
  },
  {
    "Station ID": "3",
    "Complex ID": "3",
    "GTFS Stop ID": "R04",
    "Division": "BMT",
    "Line": "Astoria",
    "Stop Name": "30 Av",
    "Borough": "Q",
    "Daytime Routes": "N W",
    "Structure": "Elevated",
    "GTFS Latitude": "40.766779",
    "GTFS Longitude": "-73.921479"
  },
  {
    "Station ID": "4",
    "Complex ID": "4",
    "GTFS Stop ID": "R05",
    "Division": "BMT",
    "Line": "Astoria",
    "Stop Name": "Broadway",
    "Borough": "Q",
    "Daytime Routes": "N W",
    "Structure": "Elevated",
    "GTFS Latitude": "40.76182",
    "GTFS Longitude": "-73.925508"
  },
  {
    "Station ID": "5",
    "Complex ID": "5",
    "GTFS Stop ID": "R06",
    "Division": "BMT",
    "Line": "Astoria",
    "Stop Name": "36 Av",
    "Borough": "Q",
    "Daytime Routes": "N W",
    "Structure": "Elevated",
    "GTFS Latitude": "40.756804",
    "GTFS Longitude": "-73.929575"
  },
  {
    "Station ID": "6",
    "Complex ID": "6",
    "GTFS Stop ID": "R08",
    "Division": "BMT",
    "Line": "Astoria",
    "Stop Name": "39 Av",
    "Borough": "Q",
    "Daytime Routes": "N W",
    "Structure": "Elevated",
    "GTFS Latitude": "40.752882",
    "GTFS Longitude": "-73.932755"
  },
  {
    "Station ID": "7",
    "Complex ID": "613",
    "GTFS Stop ID": "R11",
    "Division": "BMT",
    "Line": "Astoria",
    "Stop Name": "Lexington Av/59 St",
    "Borough": "M",
    "Daytime Routes": "N W R",
    "Structure": "Subway",
    "GTFS Latitude": "40.76266",
    "GTFS Longitude": "-73.967258"
  },
  {
    "Station ID": "8",
    "Complex ID": "8",
    "GTFS Stop ID": "R13",
    "Division": "BMT",
    "Line": "Astoria",
    "Stop Name": "5 Av/59 St",
    "Borough": "M",
    "Daytime Routes": "N W R",
    "Structure": "Subway",
    "GTFS Latitude": "40.764811",
    "GTFS Longitude": "-73.973347"
  },
  {
    "Station ID": "9",
    "Complex ID": "9",
    "GTFS Stop ID": "R14",
    "Division": "BMT",
    "Line": "Broadway - Brighton",
    "Stop Name": "57 St - 7 Av",
    "Borough": "M",
    "Daytime Routes": "N Q R W",
    "Structure": "Subway",
    "GTFS Latitude": "40.764664",
    "GTFS Longitude": "-73.980658"
  },
  {
    "Station ID": "10",
    "Complex ID": "10",
    "GTFS Stop ID": "R15",
    "Division": "BMT",
    "Line": "Broadway - Brighton",
    "Stop Name": "49 St",
    "Borough": "M",
    "Daytime Routes": "N R W",
    "Structure": "Subway",
    "GTFS Latitude": "40.759901",
    "GTFS Longitude": "-73.984139"
  },
  {
    "Station ID": "11",
    "Complex ID": "611",
    "GTFS Stop ID": "R16",
    "Division": "BMT",
    "Line": "Broadway - Brighton",
    "Stop Name": "Times Sq - 42 St",
    "Borough": "M",
    "Daytime Routes": "N Q R W",
    "Structure": "Subway",
    "GTFS Latitude": "40.754672",
    "GTFS Longitude": "-73.986754"
  },
  {
    "Station ID": "12",
    "Complex ID": "607",
    "GTFS Stop ID": "R17",
    "Division": "BMT",
    "Line": "Broadway - Brighton",
    "Stop Name": "34 St - Herald Sq",
    "Borough": "M",
    "Daytime Routes": "N Q R W",
    "Structure": "Subway",
    "GTFS Latitude": "40.749567",
    "GTFS Longitude": "-73.98795"
  },
  {
    "Station ID": "13",
    "Complex ID": "13",
    "GTFS Stop ID": "R18",
    "Division": "BMT",
    "Line": "Broadway - Brighton",
    "Stop Name": "28 St",
    "Borough": "M",
    "Daytime Routes": "R W",
    "Structure": "Subway",
    "GTFS Latitude": "40.745494",
    "GTFS Longitude": "-73.988691"
  },
  {
    "Station ID": "14",
    "Complex ID": "14",
    "GTFS Stop ID": "R19",
    "Division": "BMT",
    "Line": "Broadway - Brighton",
    "Stop Name": "23 St",
    "Borough": "M",
    "Daytime Routes": "R W",
    "Structure": "Subway",
    "GTFS Latitude": "40.741303",
    "GTFS Longitude": "-73.989344"
  },
  {
    "Station ID": "15",
    "Complex ID": "602",
    "GTFS Stop ID": "R20",
    "Division": "BMT",
    "Line": "Broadway - Brighton",
    "Stop Name": "14 St - Union Sq",
    "Borough": "M",
    "Daytime Routes": "N Q R W",
    "Structure": "Subway",
    "GTFS Latitude": "40.735736",
    "GTFS Longitude": "-73.990568"
  },
  {
    "Station ID": "16",
    "Complex ID": "16",
    "GTFS Stop ID": "R21",
    "Division": "BMT",
    "Line": "Broadway - Brighton",
    "Stop Name": "8 St - NYU",
    "Borough": "M",
    "Daytime Routes": "R W",
    "Structure": "Subway",
    "GTFS Latitude": "40.730328",
    "GTFS Longitude": "-73.992629"
  },
  {
    "Station ID": "17",
    "Complex ID": "17",
    "GTFS Stop ID": "R22",
    "Division": "BMT",
    "Line": "Broadway - Brighton",
    "Stop Name": "Prince St",
    "Borough": "M",
    "Daytime Routes": "R W",
    "Structure": "Subway",
    "GTFS Latitude": "40.724329",
    "GTFS Longitude": "-73.997702"
  },
  {
    "Station ID": "18",
    "Complex ID": "623",
    "GTFS Stop ID": "R23",
    "Division": "BMT",
    "Line": "Broadway",
    "Stop Name": "Canal St",
    "Borough": "M",
    "Daytime Routes": "R W",
    "Structure": "Subway",
    "GTFS Latitude": "40.719527",
    "GTFS Longitude": "-74.001775"
  },
  {
    "Station ID": "19",
    "Complex ID": "623",
    "GTFS Stop ID": "Q01",
    "Division": "BMT",
    "Line": "Manhattan Bridge",
    "Stop Name": "Canal St",
    "Borough": "M",
    "Daytime Routes": "N Q",
    "Structure": "Subway",
    "GTFS Latitude": "40.718383",
    "GTFS Longitude": "-74.00046"
  },
  {
    "Station ID": "20",
    "Complex ID": "20",
    "GTFS Stop ID": "R24",
    "Division": "BMT",
    "Line": "Broadway",
    "Stop Name": "City Hall",
    "Borough": "M",
    "Daytime Routes": "R W",
    "Structure": "Subway",
    "GTFS Latitude": "40.713282",
    "GTFS Longitude": "-74.006978"
  },
  {
    "Station ID": "21",
    "Complex ID": "21",
    "GTFS Stop ID": "R25",
    "Division": "BMT",
    "Line": "Broadway",
    "Stop Name": "Cortlandt St",
    "Borough": "M",
    "Daytime Routes": "R W",
    "Structure": "Subway",
    "GTFS Latitude": "40.710668",
    "GTFS Longitude": "-74.011029"
  },
  {
    "Station ID": "22",
    "Complex ID": "22",
    "GTFS Stop ID": "R26",
    "Division": "BMT",
    "Line": "Broadway",
    "Stop Name": "Rector St",
    "Borough": "M",
    "Daytime Routes": "R W",
    "Structure": "Subway",
    "GTFS Latitude": "40.70722",
    "GTFS Longitude": "-74.013342"
  },
  {
    "Station ID": "23",
    "Complex ID": "635",
    "GTFS Stop ID": "R27",
    "Division": "BMT",
    "Line": "Broadway",
    "Stop Name": "Whitehall St",
    "Borough": "M",
    "Daytime Routes": "R W",
    "Structure": "Subway",
    "GTFS Latitude": "40.703087",
    "GTFS Longitude": "-74.012994"
  },
  {
    "Station ID": "24",
    "Complex ID": "620",
    "GTFS Stop ID": "R28",
    "Division": "BMT",
    "Line": "Broadway",
    "Stop Name": "Court St",
    "Borough": "Bk",
    "Daytime Routes": "R",
    "Structure": "Subway",
    "GTFS Latitude": "40.6941",
    "GTFS Longitude": "-73.991777"
  },
  {
    "Station ID": "25",
    "Complex ID": "636",
    "GTFS Stop ID": "R29",
    "Division": "BMT",
    "Line": "Broadway",
    "Stop Name": "Jay St - MetroTech",
    "Borough": "Bk",
    "Daytime Routes": "R",
    "Structure": "Subway",
    "GTFS Latitude": "40.69218",
    "GTFS Longitude": "-73.985942"
  },
  {
    "Station ID": "26",
    "Complex ID": "26",
    "GTFS Stop ID": "R30",
    "Division": "BMT",
    "Line": "Broadway - Brighton",
    "Stop Name": "DeKalb Av",
    "Borough": "Bk",
    "Daytime Routes": "B Q R",
    "Structure": "Subway",
    "GTFS Latitude": "40.690635",
    "GTFS Longitude": "-73.981824"
  },
  {
    "Station ID": "27",
    "Complex ID": "617",
    "GTFS Stop ID": "R31",
    "Division": "BMT",
    "Line": "4th Av",
    "Stop Name": "Atlantic Av - Barclays Ctr",
    "Borough": "Bk",
    "Daytime Routes": "D N R",
    "Structure": "Subway",
    "GTFS Latitude": "40.683666",
    "GTFS Longitude": "-73.97881"
  },
  {
    "Station ID": "28",
    "Complex ID": "28",
    "GTFS Stop ID": "R32",
    "Division": "BMT",
    "Line": "4th Av",
    "Stop Name": "Union St",
    "Borough": "Bk",
    "Daytime Routes": "R",
    "Structure": "Subway",
    "GTFS Latitude": "40.677316",
    "GTFS Longitude": "-73.98311"
  },
  {
    "Station ID": "29",
    "Complex ID": "608",
    "GTFS Stop ID": "R33",
    "Division": "BMT",
    "Line": "4th Av",
    "Stop Name": "9 St",
    "Borough": "Bk",
    "Daytime Routes": "R",
    "Structure": "Subway",
    "GTFS Latitude": "40.670847",
    "GTFS Longitude": "-73.988302"
  },
  {
    "Station ID": "30",
    "Complex ID": "30",
    "GTFS Stop ID": "R34",
    "Division": "BMT",
    "Line": "4th Av",
    "Stop Name": "Prospect Av",
    "Borough": "Bk",
    "Daytime Routes": "R",
    "Structure": "Subway",
    "GTFS Latitude": "40.665414",
    "GTFS Longitude": "-73.992872"
  },
  {
    "Station ID": "31",
    "Complex ID": "31",
    "GTFS Stop ID": "R35",
    "Division": "BMT",
    "Line": "4th Av",
    "Stop Name": "25 St",
    "Borough": "Bk",
    "Daytime Routes": "R",
    "Structure": "Subway",
    "GTFS Latitude": "40.660397",
    "GTFS Longitude": "-73.998091"
  },
  {
    "Station ID": "32",
    "Complex ID": "32",
    "GTFS Stop ID": "R36",
    "Division": "BMT",
    "Line": "4th Av",
    "Stop Name": "36 St",
    "Borough": "Bk",
    "Daytime Routes": "D N R",
    "Structure": "Subway",
    "GTFS Latitude": "40.655144",
    "GTFS Longitude": "-74.003549"
  },
  {
    "Station ID": "33",
    "Complex ID": "33",
    "GTFS Stop ID": "R39",
    "Division": "BMT",
    "Line": "4th Av",
    "Stop Name": "45 St",
    "Borough": "Bk",
    "Daytime Routes": "R",
    "Structure": "Subway",
    "GTFS Latitude": "40.648939",
    "GTFS Longitude": "-74.010006"
  },
  {
    "Station ID": "34",
    "Complex ID": "34",
    "GTFS Stop ID": "R40",
    "Division": "BMT",
    "Line": "4th Av",
    "Stop Name": "53 St",
    "Borough": "Bk",
    "Daytime Routes": "R",
    "Structure": "Subway",
    "GTFS Latitude": "40.645069",
    "GTFS Longitude": "-74.014034"
  },
  {
    "Station ID": "35",
    "Complex ID": "35",
    "GTFS Stop ID": "R41",
    "Division": "BMT",
    "Line": "4th Av",
    "Stop Name": "59 St",
    "Borough": "Bk",
    "Daytime Routes": "N R",
    "Structure": "Subway",
    "GTFS Latitude": "40.641362",
    "GTFS Longitude": "-74.017881"
  },
  {
    "Station ID": "36",
    "Complex ID": "36",
    "GTFS Stop ID": "R42",
    "Division": "BMT",
    "Line": "4th Av",
    "Stop Name": "Bay Ridge Av",
    "Borough": "Bk",
    "Daytime Routes": "R",
    "Structure": "Subway",
    "GTFS Latitude": "40.634967",
    "GTFS Longitude": "-74.023377"
  },
  {
    "Station ID": "37",
    "Complex ID": "37",
    "GTFS Stop ID": "R43",
    "Division": "BMT",
    "Line": "4th Av",
    "Stop Name": "77 St",
    "Borough": "Bk",
    "Daytime Routes": "R",
    "Structure": "Subway",
    "GTFS Latitude": "40.629742",
    "GTFS Longitude": "-74.02551"
  },
  {
    "Station ID": "38",
    "Complex ID": "38",
    "GTFS Stop ID": "R44",
    "Division": "BMT",
    "Line": "4th Av",
    "Stop Name": "86 St",
    "Borough": "Bk",
    "Daytime Routes": "R",
    "Structure": "Subway",
    "GTFS Latitude": "40.622687",
    "GTFS Longitude": "-74.028398"
  },
  {
    "Station ID": "39",
    "Complex ID": "39",
    "GTFS Stop ID": "R45",
    "Division": "BMT",
    "Line": "4th Av",
    "Stop Name": "Bay Ridge - 95 St",
    "Borough": "Bk",
    "Daytime Routes": "R",
    "Structure": "Subway",
    "GTFS Latitude": "40.616622",
    "GTFS Longitude": "-74.030876"
  },
  {
    "Station ID": "40",
    "Complex ID": "617",
    "GTFS Stop ID": "D24",
    "Division": "BMT",
    "Line": "Broadway - Brighton",
    "Stop Name": "Atlantic Av - Barclays Ctr",
    "Borough": "Bk",
    "Daytime Routes": "B Q",
    "Structure": "Subway",
    "GTFS Latitude": "40.68446",
    "GTFS Longitude": "-73.97689"
  },
  {
    "Station ID": "41",
    "Complex ID": "41",
    "GTFS Stop ID": "D25",
    "Division": "BMT",
    "Line": "Broadway - Brighton",
    "Stop Name": "7 Av",
    "Borough": "Bk",
    "Daytime Routes": "B Q",
    "Structure": "Subway",
    "GTFS Latitude": "40.67705",
    "GTFS Longitude": "-73.972367"
  },
  {
    "Station ID": "42",
    "Complex ID": "42",
    "GTFS Stop ID": "D26",
    "Division": "BMT",
    "Line": "Broadway - Brighton",
    "Stop Name": "Prospect Park",
    "Borough": "Bk",
    "Daytime Routes": "B Q",
    "Structure": "Open Cut",
    "GTFS Latitude": "40.661614",
    "GTFS Longitude": "-73.962246"
  },
  {
    "Station ID": "43",
    "Complex ID": "43",
    "GTFS Stop ID": "D27",
    "Division": "BMT",
    "Line": "Broadway - Brighton",
    "Stop Name": "Parkside Av",
    "Borough": "Bk",
    "Daytime Routes": "B Q",
    "Structure": "Open Cut",
    "GTFS Latitude": "40.655292",
    "GTFS Longitude": "-73.961495"
  },
  {
    "Station ID": "44",
    "Complex ID": "44",
    "GTFS Stop ID": "D28",
    "Division": "BMT",
    "Line": "Broadway - Brighton",
    "Stop Name": "Church Av",
    "Borough": "Bk",
    "Daytime Routes": "B Q",
    "Structure": "Open Cut",
    "GTFS Latitude": "40.650527",
    "GTFS Longitude": "-73.962982"
  },
  {
    "Station ID": "45",
    "Complex ID": "45",
    "GTFS Stop ID": "D29",
    "Division": "BMT",
    "Line": "Broadway - Brighton",
    "Stop Name": "Beverley Rd",
    "Borough": "Bk",
    "Daytime Routes": "B Q",
    "Structure": "Open Cut",
    "GTFS Latitude": "40.644031",
    "GTFS Longitude": "-73.964492"
  },
  {
    "Station ID": "46",
    "Complex ID": "46",
    "GTFS Stop ID": "D30",
    "Division": "BMT",
    "Line": "Broadway - Brighton",
    "Stop Name": "Cortelyou Rd",
    "Borough": "Bk",
    "Daytime Routes": "B Q",
    "Structure": "Open Cut",
    "GTFS Latitude": "40.640927",
    "GTFS Longitude": "-73.963891"
  },
  {
    "Station ID": "47",
    "Complex ID": "47",
    "GTFS Stop ID": "D31",
    "Division": "BMT",
    "Line": "Broadway - Brighton",
    "Stop Name": "Newkirk Plaza",
    "Borough": "Bk",
    "Daytime Routes": "B Q",
    "Structure": "Open Cut",
    "GTFS Latitude": "40.635082",
    "GTFS Longitude": "-73.962793"
  },
  {
    "Station ID": "48",
    "Complex ID": "48",
    "GTFS Stop ID": "D32",
    "Division": "BMT",
    "Line": "Broadway - Brighton",
    "Stop Name": "Avenue H",
    "Borough": "Bk",
    "Daytime Routes": "B Q",
    "Structure": "Open Cut",
    "GTFS Latitude": "40.62927",
    "GTFS Longitude": "-73.961639"
  },
  {
    "Station ID": "49",
    "Complex ID": "49",
    "GTFS Stop ID": "D33",
    "Division": "BMT",
    "Line": "Broadway - Brighton",
    "Stop Name": "Avenue J",
    "Borough": "Bk",
    "Daytime Routes": "B Q",
    "Structure": "Open Cut",
    "GTFS Latitude": "40.625039",
    "GTFS Longitude": "-73.960803"
  },
  {
    "Station ID": "50",
    "Complex ID": "50",
    "GTFS Stop ID": "D34",
    "Division": "BMT",
    "Line": "Broadway - Brighton",
    "Stop Name": "Avenue M",
    "Borough": "Bk",
    "Daytime Routes": "B Q",
    "Structure": "Open Cut",
    "GTFS Latitude": "40.617618",
    "GTFS Longitude": "-73.959399"
  },
  {
    "Station ID": "51",
    "Complex ID": "51",
    "GTFS Stop ID": "D35",
    "Division": "BMT",
    "Line": "Broadway - Brighton",
    "Stop Name": "Kings Hwy",
    "Borough": "Bk",
    "Daytime Routes": "B Q",
    "Structure": "Open Cut",
    "GTFS Latitude": "40.60867",
    "GTFS Longitude": "-73.957734"
  },
  {
    "Station ID": "52",
    "Complex ID": "52",
    "GTFS Stop ID": "D37",
    "Division": "BMT",
    "Line": "Broadway - Brighton",
    "Stop Name": "Avenue U",
    "Borough": "Bk",
    "Daytime Routes": "B Q",
    "Structure": "Open Cut",
    "GTFS Latitude": "40.5993",
    "GTFS Longitude": "-73.955929"
  },
  {
    "Station ID": "53",
    "Complex ID": "53",
    "GTFS Stop ID": "D38",
    "Division": "BMT",
    "Line": "Broadway - Brighton",
    "Stop Name": "Neck Rd",
    "Borough": "Bk",
    "Daytime Routes": "B Q",
    "Structure": "Open Cut",
    "GTFS Latitude": "40.595246",
    "GTFS Longitude": "-73.955161"
  },
  {
    "Station ID": "54",
    "Complex ID": "54",
    "GTFS Stop ID": "D39",
    "Division": "BMT",
    "Line": "Broadway - Brighton",
    "Stop Name": "Sheepshead Bay",
    "Borough": "Bk",
    "Daytime Routes": "B Q",
    "Structure": "Open Cut",
    "GTFS Latitude": "40.586896",
    "GTFS Longitude": "-73.954155"
  },
  {
    "Station ID": "55",
    "Complex ID": "55",
    "GTFS Stop ID": "D40",
    "Division": "BMT",
    "Line": "Broadway - Brighton",
    "Stop Name": "Brighton Beach",
    "Borough": "Bk",
    "Daytime Routes": "B Q",
    "Structure": "Elevated",
    "GTFS Latitude": "40.577621",
    "GTFS Longitude": "-73.961376"
  },
  {
    "Station ID": "56",
    "Complex ID": "56",
    "GTFS Stop ID": "D41",
    "Division": "BMT",
    "Line": "Broadway - Brighton",
    "Stop Name": "Ocean Pkwy",
    "Borough": "Bk",
    "Daytime Routes": "Q",
    "Structure": "Elevated",
    "GTFS Latitude": "40.576312",
    "GTFS Longitude": "-73.968501"
  },
  {
    "Station ID": "57",
    "Complex ID": "57",
    "GTFS Stop ID": "D42",
    "Division": "BMT",
    "Line": "Broadway - Brighton",
    "Stop Name": "W 8 St - NY Aquarium",
    "Borough": "Bk",
    "Daytime Routes": "F Q",
    "Structure": "Elevated",
    "GTFS Latitude": "40.576127",
    "GTFS Longitude": "-73.975939"
  },
  {
    "Station ID": "58",
    "Complex ID": "58",
    "GTFS Stop ID": "D43",
    "Division": "BMT",
    "Line": "Sea Beach / West End / Culver / Brighton",
    "Stop Name": "Coney Island - Stillwell Av",
    "Borough": "Bk",
    "Daytime Routes": "D F N Q",
    "Structure": "Viaduct",
    "GTFS Latitude": "40.577422",
    "GTFS Longitude": "-73.981233"
  },
  {
    "Station ID": "59",
    "Complex ID": "59",
    "GTFS Stop ID": "B12",
    "Division": "BMT",
    "Line": "West End",
    "Stop Name": "9 Av",
    "Borough": "Bk",
    "Daytime Routes": "D",
    "Structure": "Open Cut",
    "GTFS Latitude": "40.646292",
    "GTFS Longitude": "-73.994324"
  },
  {
    "Station ID": "60",
    "Complex ID": "60",
    "GTFS Stop ID": "B13",
    "Division": "BMT",
    "Line": "West End",
    "Stop Name": "Fort Hamilton Pkwy",
    "Borough": "Bk",
    "Daytime Routes": "D",
    "Structure": "Elevated",
    "GTFS Latitude": "40.640914",
    "GTFS Longitude": "-73.994304"
  },
  {
    "Station ID": "61",
    "Complex ID": "61",
    "GTFS Stop ID": "B14",
    "Division": "BMT",
    "Line": "West End",
    "Stop Name": "50 St",
    "Borough": "Bk",
    "Daytime Routes": "D",
    "Structure": "Elevated",
    "GTFS Latitude": "40.63626",
    "GTFS Longitude": "-73.994791"
  },
  {
    "Station ID": "62",
    "Complex ID": "62",
    "GTFS Stop ID": "B15",
    "Division": "BMT",
    "Line": "West End",
    "Stop Name": "55 St",
    "Borough": "Bk",
    "Daytime Routes": "D",
    "Structure": "Elevated",
    "GTFS Latitude": "40.631435",
    "GTFS Longitude": "-73.995476"
  },
  {
    "Station ID": "63",
    "Complex ID": "615",
    "GTFS Stop ID": "B16",
    "Division": "BMT",
    "Line": "West End",
    "Stop Name": "62 St",
    "Borough": "Bk",
    "Daytime Routes": "D",
    "Structure": "Elevated",
    "GTFS Latitude": "40.626472",
    "GTFS Longitude": "-73.996895"
  },
  {
    "Station ID": "64",
    "Complex ID": "64",
    "GTFS Stop ID": "B17",
    "Division": "BMT",
    "Line": "West End",
    "Stop Name": "71 St",
    "Borough": "Bk",
    "Daytime Routes": "D",
    "Structure": "Elevated",
    "GTFS Latitude": "40.619589",
    "GTFS Longitude": "-73.998864"
  },
  {
    "Station ID": "65",
    "Complex ID": "65",
    "GTFS Stop ID": "B18",
    "Division": "BMT",
    "Line": "West End",
    "Stop Name": "79 St",
    "Borough": "Bk",
    "Daytime Routes": "D",
    "Structure": "Elevated",
    "GTFS Latitude": "40.613501",
    "GTFS Longitude": "-74.00061"
  },
  {
    "Station ID": "66",
    "Complex ID": "66",
    "GTFS Stop ID": "B19",
    "Division": "BMT",
    "Line": "West End",
    "Stop Name": "18 Av",
    "Borough": "Bk",
    "Daytime Routes": "D",
    "Structure": "Elevated",
    "GTFS Latitude": "40.607954",
    "GTFS Longitude": "-74.001736"
  },
  {
    "Station ID": "67",
    "Complex ID": "67",
    "GTFS Stop ID": "B20",
    "Division": "BMT",
    "Line": "West End",
    "Stop Name": "20 Av",
    "Borough": "Bk",
    "Daytime Routes": "D",
    "Structure": "Elevated",
    "GTFS Latitude": "40.604556",
    "GTFS Longitude": "-73.998168"
  },
  {
    "Station ID": "68",
    "Complex ID": "68",
    "GTFS Stop ID": "B21",
    "Division": "BMT",
    "Line": "West End",
    "Stop Name": "Bay Pkwy",
    "Borough": "Bk",
    "Daytime Routes": "D",
    "Structure": "Elevated",
    "GTFS Latitude": "40.601875",
    "GTFS Longitude": "-73.993728"
  },
  {
    "Station ID": "69",
    "Complex ID": "69",
    "GTFS Stop ID": "B22",
    "Division": "BMT",
    "Line": "West End",
    "Stop Name": "25 Av",
    "Borough": "Bk",
    "Daytime Routes": "D",
    "Structure": "Elevated",
    "GTFS Latitude": "40.597704",
    "GTFS Longitude": "-73.986829"
  },
  {
    "Station ID": "70",
    "Complex ID": "70",
    "GTFS Stop ID": "B23",
    "Division": "BMT",
    "Line": "West End",
    "Stop Name": "Bay 50 St",
    "Borough": "Bk",
    "Daytime Routes": "D",
    "Structure": "Elevated",
    "GTFS Latitude": "40.588841",
    "GTFS Longitude": "-73.983765"
  },
  {
    "Station ID": "71",
    "Complex ID": "71",
    "GTFS Stop ID": "N02",
    "Division": "BMT",
    "Line": "Sea Beach",
    "Stop Name": "8 Av",
    "Borough": "Bk",
    "Daytime Routes": "N",
    "Structure": "Open Cut",
    "GTFS Latitude": "40.635064",
    "GTFS Longitude": "-74.011719"
  },
  {
    "Station ID": "72",
    "Complex ID": "72",
    "GTFS Stop ID": "N03",
    "Division": "BMT",
    "Line": "Sea Beach",
    "Stop Name": "Fort Hamilton Pkwy",
    "Borough": "Bk",
    "Daytime Routes": "N",
    "Structure": "Open Cut",
    "GTFS Latitude": "40.631386",
    "GTFS Longitude": "-74.005351"
  },
  {
    "Station ID": "73",
    "Complex ID": "615",
    "GTFS Stop ID": "N04",
    "Division": "BMT",
    "Line": "Sea Beach",
    "Stop Name": "New Utrecht Av",
    "Borough": "Bk",
    "Daytime Routes": "N",
    "Structure": "Open Cut",
    "GTFS Latitude": "40.624842",
    "GTFS Longitude": "-73.996353"
  },
  {
    "Station ID": "74",
    "Complex ID": "74",
    "GTFS Stop ID": "N05",
    "Division": "BMT",
    "Line": "Sea Beach",
    "Stop Name": "18 Av",
    "Borough": "Bk",
    "Daytime Routes": "N",
    "Structure": "Open Cut",
    "GTFS Latitude": "40.620671",
    "GTFS Longitude": "-73.990414"
  },
  {
    "Station ID": "75",
    "Complex ID": "75",
    "GTFS Stop ID": "N06",
    "Division": "BMT",
    "Line": "Sea Beach",
    "Stop Name": "20 Av",
    "Borough": "Bk",
    "Daytime Routes": "N",
    "Structure": "Open Cut",
    "GTFS Latitude": "40.61741",
    "GTFS Longitude": "-73.985026"
  },
  {
    "Station ID": "76",
    "Complex ID": "76",
    "GTFS Stop ID": "N07",
    "Division": "BMT",
    "Line": "Sea Beach",
    "Stop Name": "Bay Pkwy",
    "Borough": "Bk",
    "Daytime Routes": "N",
    "Structure": "Open Cut",
    "GTFS Latitude": "40.611815",
    "GTFS Longitude": "-73.981848"
  },
  {
    "Station ID": "77",
    "Complex ID": "77",
    "GTFS Stop ID": "N08",
    "Division": "BMT",
    "Line": "Sea Beach",
    "Stop Name": "Kings Hwy",
    "Borough": "Bk",
    "Daytime Routes": "N",
    "Structure": "Open Cut",
    "GTFS Latitude": "40.603923",
    "GTFS Longitude": "-73.980353"
  },
  {
    "Station ID": "78",
    "Complex ID": "78",
    "GTFS Stop ID": "N09",
    "Division": "BMT",
    "Line": "Sea Beach",
    "Stop Name": "Avenue U",
    "Borough": "Bk",
    "Daytime Routes": "N",
    "Structure": "Open Cut",
    "GTFS Latitude": "40.597473",
    "GTFS Longitude": "-73.979137"
  },
  {
    "Station ID": "79",
    "Complex ID": "79",
    "GTFS Stop ID": "N10",
    "Division": "BMT",
    "Line": "Sea Beach",
    "Stop Name": "86 St",
    "Borough": "Bk",
    "Daytime Routes": "N",
    "Structure": "Open Cut",
    "GTFS Latitude": "40.592721",
    "GTFS Longitude": "-73.97823"
  },
  {
    "Station ID": "80",
    "Complex ID": "80",
    "GTFS Stop ID": "J12",
    "Division": "BMT",
    "Line": "Jamaica",
    "Stop Name": "121 St",
    "Borough": "Q",
    "Daytime Routes": "J Z",
    "Structure": "Elevated",
    "GTFS Latitude": "40.700492",
    "GTFS Longitude": "-73.828294"
  },
  {
    "Station ID": "81",
    "Complex ID": "81",
    "GTFS Stop ID": "J13",
    "Division": "BMT",
    "Line": "Jamaica",
    "Stop Name": "111 St",
    "Borough": "Q",
    "Daytime Routes": "J",
    "Structure": "Elevated",
    "GTFS Latitude": "40.697418",
    "GTFS Longitude": "-73.836345"
  },
  {
    "Station ID": "82",
    "Complex ID": "82",
    "GTFS Stop ID": "J14",
    "Division": "BMT",
    "Line": "Jamaica",
    "Stop Name": "104 St",
    "Borough": "Q",
    "Daytime Routes": "J Z",
    "Structure": "Elevated",
    "GTFS Latitude": "40.695178",
    "GTFS Longitude": "-73.84433"
  },
  {
    "Station ID": "83",
    "Complex ID": "83",
    "GTFS Stop ID": "J15",
    "Division": "BMT",
    "Line": "Jamaica",
    "Stop Name": "Woodhaven Blvd",
    "Borough": "Q",
    "Daytime Routes": "J Z",
    "Structure": "Elevated",
    "GTFS Latitude": "40.693879",
    "GTFS Longitude": "-73.851576"
  },
  {
    "Station ID": "84",
    "Complex ID": "84",
    "GTFS Stop ID": "J16",
    "Division": "BMT",
    "Line": "Jamaica",
    "Stop Name": "85 St - Forest Pkwy",
    "Borough": "Q",
    "Daytime Routes": "J",
    "Structure": "Elevated",
    "GTFS Latitude": "40.692435",
    "GTFS Longitude": "-73.86001"
  },
  {
    "Station ID": "85",
    "Complex ID": "85",
    "GTFS Stop ID": "J17",
    "Division": "BMT",
    "Line": "Jamaica",
    "Stop Name": "75 St",
    "Borough": "Q",
    "Daytime Routes": "J Z",
    "Structure": "Elevated",
    "GTFS Latitude": "40.691324",
    "GTFS Longitude": "-73.867139"
  },
  {
    "Station ID": "86",
    "Complex ID": "86",
    "GTFS Stop ID": "J19",
    "Division": "BMT",
    "Line": "Jamaica",
    "Stop Name": "Cypress Hills",
    "Borough": "Bk",
    "Daytime Routes": "J",
    "Structure": "Elevated",
    "GTFS Latitude": "40.689941",
    "GTFS Longitude": "-73.87255"
  },
  {
    "Station ID": "87",
    "Complex ID": "87",
    "GTFS Stop ID": "J20",
    "Division": "BMT",
    "Line": "Jamaica",
    "Stop Name": "Crescent St",
    "Borough": "Bk",
    "Daytime Routes": "J Z",
    "Structure": "Elevated",
    "GTFS Latitude": "40.683194",
    "GTFS Longitude": "-73.873785"
  },
  {
    "Station ID": "88",
    "Complex ID": "88",
    "GTFS Stop ID": "J21",
    "Division": "BMT",
    "Line": "Jamaica",
    "Stop Name": "Norwood Av",
    "Borough": "Bk",
    "Daytime Routes": "J Z",
    "Structure": "Elevated",
    "GTFS Latitude": "40.68141",
    "GTFS Longitude": "-73.880039"
  },
  {
    "Station ID": "89",
    "Complex ID": "89",
    "GTFS Stop ID": "J22",
    "Division": "BMT",
    "Line": "Jamaica",
    "Stop Name": "Cleveland St",
    "Borough": "Bk",
    "Daytime Routes": "J",
    "Structure": "Elevated",
    "GTFS Latitude": "40.679947",
    "GTFS Longitude": "-73.884639"
  },
  {
    "Station ID": "90",
    "Complex ID": "90",
    "GTFS Stop ID": "J23",
    "Division": "BMT",
    "Line": "Jamaica",
    "Stop Name": "Van Siclen Av",
    "Borough": "Bk",
    "Daytime Routes": "J Z",
    "Structure": "Elevated",
    "GTFS Latitude": "40.678024",
    "GTFS Longitude": "-73.891688"
  },
  {
    "Station ID": "91",
    "Complex ID": "91",
    "GTFS Stop ID": "J24",
    "Division": "BMT",
    "Line": "Jamaica",
    "Stop Name": "Alabama Av",
    "Borough": "Bk",
    "Daytime Routes": "J",
    "Structure": "Elevated",
    "GTFS Latitude": "40.676992",
    "GTFS Longitude": "-73.898654"
  },
  {
    "Station ID": "92",
    "Complex ID": "621",
    "GTFS Stop ID": "J27",
    "Division": "BMT",
    "Line": "Jamaica",
    "Stop Name": "Broadway Jct",
    "Borough": "Bk",
    "Daytime Routes": "J Z",
    "Structure": "Elevated",
    "GTFS Latitude": "40.679498",
    "GTFS Longitude": "-73.904512"
  },
  {
    "Station ID": "93",
    "Complex ID": "93",
    "GTFS Stop ID": "J28",
    "Division": "BMT",
    "Line": "Jamaica",
    "Stop Name": "Chauncey St",
    "Borough": "Bk",
    "Daytime Routes": "J Z",
    "Structure": "Elevated",
    "GTFS Latitude": "40.682893",
    "GTFS Longitude": "-73.910456"
  },
  {
    "Station ID": "94",
    "Complex ID": "94",
    "GTFS Stop ID": "J29",
    "Division": "BMT",
    "Line": "Jamaica",
    "Stop Name": "Halsey St",
    "Borough": "Bk",
    "Daytime Routes": "J",
    "Structure": "Elevated",
    "GTFS Latitude": "40.68637",
    "GTFS Longitude": "-73.916559"
  },
  {
    "Station ID": "95",
    "Complex ID": "95",
    "GTFS Stop ID": "J30",
    "Division": "BMT",
    "Line": "Jamaica",
    "Stop Name": "Gates Av",
    "Borough": "Bk",
    "Daytime Routes": "J Z",
    "Structure": "Elevated",
    "GTFS Latitude": "40.68963",
    "GTFS Longitude": "-73.92227"
  },
  {
    "Station ID": "96",
    "Complex ID": "96",
    "GTFS Stop ID": "J31",
    "Division": "BMT",
    "Line": "Jamaica",
    "Stop Name": "Kosciuszko St",
    "Borough": "Bk",
    "Daytime Routes": "J",
    "Structure": "Elevated",
    "GTFS Latitude": "40.693342",
    "GTFS Longitude": "-73.928814"
  },
  {
    "Station ID": "97",
    "Complex ID": "97",
    "GTFS Stop ID": "M11",
    "Division": "BMT",
    "Line": "Jamaica",
    "Stop Name": "Myrtle Av",
    "Borough": "Bk",
    "Daytime Routes": "J M Z",
    "Structure": "Elevated",
    "GTFS Latitude": "40.697207",
    "GTFS Longitude": "-73.935657"
  },
  {
    "Station ID": "98",
    "Complex ID": "98",
    "GTFS Stop ID": "M12",
    "Division": "BMT",
    "Line": "Jamaica",
    "Stop Name": "Flushing Av",
    "Borough": "Bk",
    "Daytime Routes": "J M",
    "Structure": "Elevated",
    "GTFS Latitude": "40.70026",
    "GTFS Longitude": "-73.941126"
  },
  {
    "Station ID": "99",
    "Complex ID": "99",
    "GTFS Stop ID": "M13",
    "Division": "BMT",
    "Line": "Jamaica",
    "Stop Name": "Lorimer St",
    "Borough": "Bk",
    "Daytime Routes": "J M",
    "Structure": "Elevated",
    "GTFS Latitude": "40.703869",
    "GTFS Longitude": "-73.947408"
  },
  {
    "Station ID": "100",
    "Complex ID": "100",
    "GTFS Stop ID": "M14",
    "Division": "BMT",
    "Line": "Jamaica",
    "Stop Name": "Hewes St",
    "Borough": "Bk",
    "Daytime Routes": "J M",
    "Structure": "Elevated",
    "GTFS Latitude": "40.70687",
    "GTFS Longitude": "-73.953431"
  },
  {
    "Station ID": "101",
    "Complex ID": "101",
    "GTFS Stop ID": "M16",
    "Division": "BMT",
    "Line": "Jamaica",
    "Stop Name": "Marcy Av",
    "Borough": "Bk",
    "Daytime Routes": "J M Z",
    "Structure": "Elevated",
    "GTFS Latitude": "40.708359",
    "GTFS Longitude": "-73.957757"
  },
  {
    "Station ID": "102",
    "Complex ID": "625",
    "GTFS Stop ID": "M18",
    "Division": "BMT",
    "Line": "Jamaica",
    "Stop Name": "Essex St",
    "Borough": "M",
    "Daytime Routes": "J M Z",
    "Structure": "Subway",
    "GTFS Latitude": "40.718315",
    "GTFS Longitude": "-73.987437"
  },
  {
    "Station ID": "103",
    "Complex ID": "103",
    "GTFS Stop ID": "M19",
    "Division": "BMT",
    "Line": "Jamaica",
    "Stop Name": "Bowery",
    "Borough": "M",
    "Daytime Routes": "J Z",
    "Structure": "Subway",
    "GTFS Latitude": "40.72028",
    "GTFS Longitude": "-73.993915"
  },
  {
    "Station ID": "104",
    "Complex ID": "623",
    "GTFS Stop ID": "M20",
    "Division": "BMT",
    "Line": "Jamaica",
    "Stop Name": "Canal St",
    "Borough": "M",
    "Daytime Routes": "J Z",
    "Structure": "Subway",
    "GTFS Latitude": "40.718092",
    "GTFS Longitude": "-73.999892"
  },
  {
    "Station ID": "105",
    "Complex ID": "622",
    "GTFS Stop ID": "M21",
    "Division": "BMT",
    "Line": "Jamaica",
    "Stop Name": "Chambers St",
    "Borough": "M",
    "Daytime Routes": "J Z",
    "Structure": "Subway",
    "GTFS Latitude": "40.713243",
    "GTFS Longitude": "-74.003401"
  },
  {
    "Station ID": "106",
    "Complex ID": "628",
    "GTFS Stop ID": "M22",
    "Division": "BMT",
    "Line": "Jamaica",
    "Stop Name": "Fulton St",
    "Borough": "M",
    "Daytime Routes": "J Z",
    "Structure": "Subway",
    "GTFS Latitude": "40.710374",
    "GTFS Longitude": "-74.007582"
  },
  {
    "Station ID": "107",
    "Complex ID": "107",
    "GTFS Stop ID": "M23",
    "Division": "BMT",
    "Line": "Jamaica",
    "Stop Name": "Broad St",
    "Borough": "M",
    "Daytime Routes": "J Z",
    "Structure": "Subway",
    "GTFS Latitude": "40.706476",
    "GTFS Longitude": "-74.011056"
  },
  {
    "Station ID": "108",
    "Complex ID": "108",
    "GTFS Stop ID": "M01",
    "Division": "BMT",
    "Line": "Myrtle Av",
    "Stop Name": "Middle Village - Metropolitan Av",
    "Borough": "Q",
    "Daytime Routes": "M",
    "Structure": "Elevated",
    "GTFS Latitude": "40.711396",
    "GTFS Longitude": "-73.889601"
  },
  {
    "Station ID": "109",
    "Complex ID": "109",
    "GTFS Stop ID": "M04",
    "Division": "BMT",
    "Line": "Myrtle Av",
    "Stop Name": "Fresh Pond Rd",
    "Borough": "Q",
    "Daytime Routes": "M",
    "Structure": "Elevated",
    "GTFS Latitude": "40.706186",
    "GTFS Longitude": "-73.895877"
  },
  {
    "Station ID": "110",
    "Complex ID": "110",
    "GTFS Stop ID": "M05",
    "Division": "BMT",
    "Line": "Myrtle Av",
    "Stop Name": "Forest Av",
    "Borough": "Q",
    "Daytime Routes": "M",
    "Structure": "Elevated",
    "GTFS Latitude": "40.704423",
    "GTFS Longitude": "-73.903077"
  },
  {
    "Station ID": "111",
    "Complex ID": "111",
    "GTFS Stop ID": "M06",
    "Division": "BMT",
    "Line": "Myrtle Av",
    "Stop Name": "Seneca Av",
    "Borough": "Q",
    "Daytime Routes": "M",
    "Structure": "Elevated",
    "GTFS Latitude": "40.702762",
    "GTFS Longitude": "-73.90774"
  },
  {
    "Station ID": "112",
    "Complex ID": "630",
    "GTFS Stop ID": "M08",
    "Division": "BMT",
    "Line": "Myrtle Av",
    "Stop Name": "Myrtle - Wyckoff Avs",
    "Borough": "Bk",
    "Daytime Routes": "M",
    "Structure": "Elevated",
    "GTFS Latitude": "40.69943",
    "GTFS Longitude": "-73.912385"
  },
  {
    "Station ID": "113",
    "Complex ID": "113",
    "GTFS Stop ID": "M09",
    "Division": "BMT",
    "Line": "Myrtle Av",
    "Stop Name": "Knickerbocker Av",
    "Borough": "Bk",
    "Daytime Routes": "M",
    "Structure": "Elevated",
    "GTFS Latitude": "40.698664",
    "GTFS Longitude": "-73.919711"
  },
  {
    "Station ID": "114",
    "Complex ID": "114",
    "GTFS Stop ID": "M10",
    "Division": "BMT",
    "Line": "Myrtle Av",
    "Stop Name": "Central Av",
    "Borough": "Bk",
    "Daytime Routes": "M",
    "Structure": "Elevated",
    "GTFS Latitude": "40.697857",
    "GTFS Longitude": "-73.927397"
  },
  {
    "Station ID": "115",
    "Complex ID": "618",
    "GTFS Stop ID": "L01",
    "Division": "BMT",
    "Line": "Canarsie",
    "Stop Name": "8 Av",
    "Borough": "M",
    "Daytime Routes": "L",
    "Structure": "Subway",
    "GTFS Latitude": "40.739777",
    "GTFS Longitude": "-74.002578"
  },
  {
    "Station ID": "116",
    "Complex ID": "601",
    "GTFS Stop ID": "L02",
    "Division": "BMT",
    "Line": "Canarsie",
    "Stop Name": "6 Av",
    "Borough": "M",
    "Daytime Routes": "L",
    "Structure": "Subway",
    "GTFS Latitude": "40.737335",
    "GTFS Longitude": "-73.996786"
  },
  {
    "Station ID": "117",
    "Complex ID": "602",
    "GTFS Stop ID": "L03",
    "Division": "BMT",
    "Line": "Canarsie",
    "Stop Name": "Union Sq - 14 St",
    "Borough": "M",
    "Daytime Routes": "L",
    "Structure": "Subway",
    "GTFS Latitude": "40.734789",
    "GTFS Longitude": "-73.99073"
  },
  {
    "Station ID": "118",
    "Complex ID": "118",
    "GTFS Stop ID": "L05",
    "Division": "BMT",
    "Line": "Canarsie",
    "Stop Name": "3 Av",
    "Borough": "M",
    "Daytime Routes": "L",
    "Structure": "Subway",
    "GTFS Latitude": "40.732849",
    "GTFS Longitude": "-73.986122"
  },
  {
    "Station ID": "119",
    "Complex ID": "119",
    "GTFS Stop ID": "L06",
    "Division": "BMT",
    "Line": "Canarsie",
    "Stop Name": "1 Av",
    "Borough": "M",
    "Daytime Routes": "L",
    "Structure": "Subway",
    "GTFS Latitude": "40.730953",
    "GTFS Longitude": "-73.981628"
  },
  {
    "Station ID": "120",
    "Complex ID": "120",
    "GTFS Stop ID": "L08",
    "Division": "BMT",
    "Line": "Canarsie",
    "Stop Name": "Bedford Av",
    "Borough": "Bk",
    "Daytime Routes": "L",
    "Structure": "Subway",
    "GTFS Latitude": "40.717304",
    "GTFS Longitude": "-73.956872"
  },
  {
    "Station ID": "121",
    "Complex ID": "629",
    "GTFS Stop ID": "L10",
    "Division": "BMT",
    "Line": "Canarsie",
    "Stop Name": "Lorimer St",
    "Borough": "Bk",
    "Daytime Routes": "L",
    "Structure": "Subway",
    "GTFS Latitude": "40.714063",
    "GTFS Longitude": "-73.950275"
  },
  {
    "Station ID": "122",
    "Complex ID": "122",
    "GTFS Stop ID": "L11",
    "Division": "BMT",
    "Line": "Canarsie",
    "Stop Name": "Graham Av",
    "Borough": "Bk",
    "Daytime Routes": "L",
    "Structure": "Subway",
    "GTFS Latitude": "40.714565",
    "GTFS Longitude": "-73.944053"
  },
  {
    "Station ID": "123",
    "Complex ID": "123",
    "GTFS Stop ID": "L12",
    "Division": "BMT",
    "Line": "Canarsie",
    "Stop Name": "Grand St",
    "Borough": "Bk",
    "Daytime Routes": "L",
    "Structure": "Subway",
    "GTFS Latitude": "40.711926",
    "GTFS Longitude": "-73.94067"
  },
  {
    "Station ID": "124",
    "Complex ID": "124",
    "GTFS Stop ID": "L13",
    "Division": "BMT",
    "Line": "Canarsie",
    "Stop Name": "Montrose Av",
    "Borough": "Bk",
    "Daytime Routes": "L",
    "Structure": "Subway",
    "GTFS Latitude": "40.707739",
    "GTFS Longitude": "-73.93985"
  },
  {
    "Station ID": "125",
    "Complex ID": "125",
    "GTFS Stop ID": "L14",
    "Division": "BMT",
    "Line": "Canarsie",
    "Stop Name": "Morgan Av",
    "Borough": "Bk",
    "Daytime Routes": "L",
    "Structure": "Subway",
    "GTFS Latitude": "40.706152",
    "GTFS Longitude": "-73.933147"
  },
  {
    "Station ID": "126",
    "Complex ID": "126",
    "GTFS Stop ID": "L15",
    "Division": "BMT",
    "Line": "Canarsie",
    "Stop Name": "Jefferson St",
    "Borough": "Bk",
    "Daytime Routes": "L",
    "Structure": "Subway",
    "GTFS Latitude": "40.706607",
    "GTFS Longitude": "-73.922913"
  },
  {
    "Station ID": "127",
    "Complex ID": "127",
    "GTFS Stop ID": "L16",
    "Division": "BMT",
    "Line": "Canarsie",
    "Stop Name": "DeKalb Av",
    "Borough": "Bk",
    "Daytime Routes": "L",
    "Structure": "Subway",
    "GTFS Latitude": "40.703811",
    "GTFS Longitude": "-73.918425"
  },
  {
    "Station ID": "128",
    "Complex ID": "630",
    "GTFS Stop ID": "L17",
    "Division": "BMT",
    "Line": "Canarsie",
    "Stop Name": "Myrtle - Wyckoff Avs",
    "Borough": "Bk",
    "Daytime Routes": "L",
    "Structure": "Subway",
    "GTFS Latitude": "40.699814",
    "GTFS Longitude": "-73.911586"
  },
  {
    "Station ID": "129",
    "Complex ID": "129",
    "GTFS Stop ID": "L19",
    "Division": "BMT",
    "Line": "Canarsie",
    "Stop Name": "Halsey St",
    "Borough": "Q",
    "Daytime Routes": "L",
    "Structure": "Subway",
    "GTFS Latitude": "40.695602",
    "GTFS Longitude": "-73.904084"
  },
  {
    "Station ID": "130",
    "Complex ID": "130",
    "GTFS Stop ID": "L20",
    "Division": "BMT",
    "Line": "Canarsie",
    "Stop Name": "Wilson Av",
    "Borough": "Bk",
    "Daytime Routes": "L",
    "Structure": "Subway",
    "GTFS Latitude": "40.688764",
    "GTFS Longitude": "-73.904046"
  },
  {
    "Station ID": "131",
    "Complex ID": "131",
    "GTFS Stop ID": "L21",
    "Division": "BMT",
    "Line": "Canarsie",
    "Stop Name": "Bushwick Av - Aberdeen St",
    "Borough": "Bk",
    "Daytime Routes": "L",
    "Structure": "Subway",
    "GTFS Latitude": "40.682829",
    "GTFS Longitude": "-73.905249"
  },
  {
    "Station ID": "132",
    "Complex ID": "621",
    "GTFS Stop ID": "L22",
    "Division": "BMT",
    "Line": "Canarsie",
    "Stop Name": "Broadway Jct",
    "Borough": "Bk",
    "Daytime Routes": "L",
    "Structure": "Elevated",
    "GTFS Latitude": "40.678856",
    "GTFS Longitude": "-73.90324"
  },
  {
    "Station ID": "133",
    "Complex ID": "133",
    "GTFS Stop ID": "L24",
    "Division": "BMT",
    "Line": "Canarsie",
    "Stop Name": "Atlantic Av",
    "Borough": "Bk",
    "Daytime Routes": "L",
    "Structure": "Elevated",
    "GTFS Latitude": "40.675345",
    "GTFS Longitude": "-73.903097"
  },
  {
    "Station ID": "134",
    "Complex ID": "134",
    "GTFS Stop ID": "L25",
    "Division": "BMT",
    "Line": "Canarsie",
    "Stop Name": "Sutter Av",
    "Borough": "Bk",
    "Daytime Routes": "L",
    "Structure": "Elevated",
    "GTFS Latitude": "40.669367",
    "GTFS Longitude": "-73.901975"
  },
  {
    "Station ID": "135",
    "Complex ID": "135",
    "GTFS Stop ID": "L26",
    "Division": "BMT",
    "Line": "Canarsie",
    "Stop Name": "Livonia Av",
    "Borough": "Bk",
    "Daytime Routes": "L",
    "Structure": "Elevated",
    "GTFS Latitude": "40.664038",
    "GTFS Longitude": "-73.900571"
  },
  {
    "Station ID": "136",
    "Complex ID": "136",
    "GTFS Stop ID": "L27",
    "Division": "BMT",
    "Line": "Canarsie",
    "Stop Name": "New Lots Av",
    "Borough": "Bk",
    "Daytime Routes": "L",
    "Structure": "Elevated",
    "GTFS Latitude": "40.658733",
    "GTFS Longitude": "-73.899232"
  },
  {
    "Station ID": "137",
    "Complex ID": "137",
    "GTFS Stop ID": "L28",
    "Division": "BMT",
    "Line": "Canarsie",
    "Stop Name": "E 105 St",
    "Borough": "Bk",
    "Daytime Routes": "L",
    "Structure": "At Grade",
    "GTFS Latitude": "40.650573",
    "GTFS Longitude": "-73.899485"
  },
  {
    "Station ID": "138",
    "Complex ID": "138",
    "GTFS Stop ID": "L29",
    "Division": "BMT",
    "Line": "Canarsie",
    "Stop Name": "Canarsie - Rockaway Pkwy",
    "Borough": "Bk",
    "Daytime Routes": "L",
    "Structure": "At Grade",
    "GTFS Latitude": "40.646654",
    "GTFS Longitude": "-73.90185"
  },
  {
    "Station ID": "139",
    "Complex ID": "627",
    "GTFS Stop ID": "S01",
    "Division": "BMT",
    "Line": "Franklin Shuttle",
    "Stop Name": "Franklin Av",
    "Borough": "Bk",
    "Daytime Routes": "S",
    "Structure": "Elevated",
    "GTFS Latitude": "40.680596",
    "GTFS Longitude": "-73.955827"
  },
  {
    "Station ID": "141",
    "Complex ID": "141",
    "GTFS Stop ID": "S03",
    "Division": "BMT",
    "Line": "Franklin Shuttle",
    "Stop Name": "Park Pl",
    "Borough": "Bk",
    "Daytime Routes": "S",
    "Structure": "Open Cut",
    "GTFS Latitude": "40.674772",
    "GTFS Longitude": "-73.957624"
  },
  {
    "Station ID": "142",
    "Complex ID": "626",
    "GTFS Stop ID": "S04",
    "Division": "BMT",
    "Line": "Franklin Shuttle",
    "Stop Name": "Botanic Garden",
    "Borough": "Bk",
    "Daytime Routes": "S",
    "Structure": "Open Cut",
    "GTFS Latitude": "40.670343",
    "GTFS Longitude": "-73.959245"
  },
  {
    "Station ID": "143",
    "Complex ID": "143",
    "GTFS Stop ID": "A02",
    "Division": "IND",
    "Line": "8th Av - Fulton St",
    "Stop Name": "Inwood - 207 St",
    "Borough": "M",
    "Daytime Routes": "A",
    "Structure": "Subway",
    "GTFS Latitude": "40.868072",
    "GTFS Longitude": "-73.919899"
  },
  {
    "Station ID": "144",
    "Complex ID": "144",
    "GTFS Stop ID": "A03",
    "Division": "IND",
    "Line": "8th Av - Fulton St",
    "Stop Name": "Dyckman St",
    "Borough": "M",
    "Daytime Routes": "A",
    "Structure": "Subway",
    "GTFS Latitude": "40.865491",
    "GTFS Longitude": "-73.927271"
  },
  {
    "Station ID": "145",
    "Complex ID": "145",
    "GTFS Stop ID": "A05",
    "Division": "IND",
    "Line": "8th Av - Fulton St",
    "Stop Name": "190 St",
    "Borough": "M",
    "Daytime Routes": "A",
    "Structure": "Subway",
    "GTFS Latitude": "40.859022",
    "GTFS Longitude": "-73.93418"
  },
  {
    "Station ID": "146",
    "Complex ID": "146",
    "GTFS Stop ID": "A06",
    "Division": "IND",
    "Line": "8th Av - Fulton St",
    "Stop Name": "181 St",
    "Borough": "M",
    "Daytime Routes": "A",
    "Structure": "Subway",
    "GTFS Latitude": "40.851695",
    "GTFS Longitude": "-73.937969"
  },
  {
    "Station ID": "147",
    "Complex ID": "147",
    "GTFS Stop ID": "A07",
    "Division": "IND",
    "Line": "8th Av - Fulton St",
    "Stop Name": "175 St",
    "Borough": "M",
    "Daytime Routes": "A",
    "Structure": "Subway",
    "GTFS Latitude": "40.847391",
    "GTFS Longitude": "-73.939704"
  },
  {
    "Station ID": "148",
    "Complex ID": "605",
    "GTFS Stop ID": "A09",
    "Division": "IND",
    "Line": "8th Av - Fulton St",
    "Stop Name": "168 St",
    "Borough": "M",
    "Daytime Routes": "A C",
    "Structure": "Subway",
    "GTFS Latitude": "40.840719",
    "GTFS Longitude": "-73.939561"
  },
  {
    "Station ID": "149",
    "Complex ID": "149",
    "GTFS Stop ID": "A10",
    "Division": "IND",
    "Line": "8th Av - Fulton St",
    "Stop Name": "163 St - Amsterdam Av",
    "Borough": "M",
    "Daytime Routes": "C",
    "Structure": "Subway",
    "GTFS Latitude": "40.836013",
    "GTFS Longitude": "-73.939892"
  },
  {
    "Station ID": "150",
    "Complex ID": "150",
    "GTFS Stop ID": "A11",
    "Division": "IND",
    "Line": "8th Av - Fulton St",
    "Stop Name": "155 St",
    "Borough": "M",
    "Daytime Routes": "C",
    "Structure": "Subway",
    "GTFS Latitude": "40.830518",
    "GTFS Longitude": "-73.941514"
  },
  {
    "Station ID": "151",
    "Complex ID": "151",
    "GTFS Stop ID": "A12",
    "Division": "IND",
    "Line": "8th Av - Fulton St",
    "Stop Name": "145 St",
    "Borough": "M",
    "Daytime Routes": "A C",
    "Structure": "Subway",
    "GTFS Latitude": "40.824783",
    "GTFS Longitude": "-73.944216"
  },
  {
    "Station ID": "151",
    "Complex ID": "151",
    "GTFS Stop ID": "D13",
    "Division": "IND",
    "Line": "Concourse",
    "Stop Name": "145 St",
    "Borough": "M",
    "Daytime Routes": "B D",
    "Structure": "Subway",
    "GTFS Latitude": "40.824783",
    "GTFS Longitude": "-73.944216"
  },
  {
    "Station ID": "152",
    "Complex ID": "152",
    "GTFS Stop ID": "A14",
    "Division": "IND",
    "Line": "8th Av - Fulton St",
    "Stop Name": "135 St",
    "Borough": "M",
    "Daytime Routes": "B C",
    "Structure": "Subway",
    "GTFS Latitude": "40.817894",
    "GTFS Longitude": "-73.947649"
  },
  {
    "Station ID": "153",
    "Complex ID": "153",
    "GTFS Stop ID": "A15",
    "Division": "IND",
    "Line": "8th Av - Fulton St",
    "Stop Name": "125 St",
    "Borough": "M",
    "Daytime Routes": "A B C D",
    "Structure": "Subway",
    "GTFS Latitude": "40.811109",
    "GTFS Longitude": "-73.952343"
  },
  {
    "Station ID": "154",
    "Complex ID": "154",
    "GTFS Stop ID": "A16",
    "Division": "IND",
    "Line": "8th Av - Fulton St",
    "Stop Name": "116 St",
    "Borough": "M",
    "Daytime Routes": "B C",
    "Structure": "Subway",
    "GTFS Latitude": "40.805085",
    "GTFS Longitude": "-73.954882"
  },
  {
    "Station ID": "155",
    "Complex ID": "155",
    "GTFS Stop ID": "A17",
    "Division": "IND",
    "Line": "8th Av - Fulton St",
    "Stop Name": "Cathedral Pkwy (110 St)",
    "Borough": "M",
    "Daytime Routes": "B C",
    "Structure": "Subway",
    "GTFS Latitude": "40.800603",
    "GTFS Longitude": "-73.958161"
  },
  {
    "Station ID": "156",
    "Complex ID": "156",
    "GTFS Stop ID": "A18",
    "Division": "IND",
    "Line": "8th Av - Fulton St",
    "Stop Name": "103 St",
    "Borough": "M",
    "Daytime Routes": "B C",
    "Structure": "Subway",
    "GTFS Latitude": "40.796092",
    "GTFS Longitude": "-73.961454"
  },
  {
    "Station ID": "157",
    "Complex ID": "157",
    "GTFS Stop ID": "A19",
    "Division": "IND",
    "Line": "8th Av - Fulton St",
    "Stop Name": "96 St",
    "Borough": "M",
    "Daytime Routes": "B C",
    "Structure": "Subway",
    "GTFS Latitude": "40.791642",
    "GTFS Longitude": "-73.964696"
  },
  {
    "Station ID": "158",
    "Complex ID": "158",
    "GTFS Stop ID": "A20",
    "Division": "IND",
    "Line": "8th Av - Fulton St",
    "Stop Name": "86 St",
    "Borough": "M",
    "Daytime Routes": "B C",
    "Structure": "Subway",
    "GTFS Latitude": "40.785868",
    "GTFS Longitude": "-73.968916"
  },
  {
    "Station ID": "159",
    "Complex ID": "159",
    "GTFS Stop ID": "A21",
    "Division": "IND",
    "Line": "8th Av - Fulton St",
    "Stop Name": "81 St - Museum of Natural History",
    "Borough": "M",
    "Daytime Routes": "B C",
    "Structure": "Subway",
    "GTFS Latitude": "40.781433",
    "GTFS Longitude": "-73.972143"
  },
  {
    "Station ID": "160",
    "Complex ID": "160",
    "GTFS Stop ID": "A22",
    "Division": "IND",
    "Line": "8th Av - Fulton St",
    "Stop Name": "72 St",
    "Borough": "M",
    "Daytime Routes": "B C",
    "Structure": "Subway",
    "GTFS Latitude": "40.775594",
    "GTFS Longitude": "-73.97641"
  },
  {
    "Station ID": "161",
    "Complex ID": "614",
    "GTFS Stop ID": "A24",
    "Division": "IND",
    "Line": "8th Av - Fulton St",
    "Stop Name": "59 St - Columbus Circle",
    "Borough": "M",
    "Daytime Routes": "A B C D",
    "Structure": "Subway",
    "GTFS Latitude": "40.768296",
    "GTFS Longitude": "-73.981736"
  },
  {
    "Station ID": "162",
    "Complex ID": "162",
    "GTFS Stop ID": "A25",
    "Division": "IND",
    "Line": "8th Av - Fulton St",
    "Stop Name": "50 St",
    "Borough": "M",
    "Daytime Routes": "C E",
    "Structure": "Subway",
    "GTFS Latitude": "40.762456",
    "GTFS Longitude": "-73.985984"
  },
  {
    "Station ID": "163",
    "Complex ID": "611",
    "GTFS Stop ID": "A27",
    "Division": "IND",
    "Line": "8th Av - Fulton St",
    "Stop Name": "42 St - Port Authority Bus Terminal",
    "Borough": "M",
    "Daytime Routes": "A C E",
    "Structure": "Subway",
    "GTFS Latitude": "40.757308",
    "GTFS Longitude": "-73.989735"
  },
  {
    "Station ID": "164",
    "Complex ID": "164",
    "GTFS Stop ID": "A28",
    "Division": "IND",
    "Line": "8th Av - Fulton St",
    "Stop Name": "34 St - Penn Station",
    "Borough": "M",
    "Daytime Routes": "A C E",
    "Structure": "Subway",
    "GTFS Latitude": "40.752287",
    "GTFS Longitude": "-73.993391"
  },
  {
    "Station ID": "165",
    "Complex ID": "165",
    "GTFS Stop ID": "A30",
    "Division": "IND",
    "Line": "8th Av - Fulton St",
    "Stop Name": "23 St",
    "Borough": "M",
    "Daytime Routes": "C E",
    "Structure": "Subway",
    "GTFS Latitude": "40.745906",
    "GTFS Longitude": "-73.998041"
  },
  {
    "Station ID": "166",
    "Complex ID": "618",
    "GTFS Stop ID": "A31",
    "Division": "IND",
    "Line": "8th Av - Fulton St",
    "Stop Name": "14 St",
    "Borough": "M",
    "Daytime Routes": "A C E",
    "Structure": "Subway",
    "GTFS Latitude": "40.740893",
    "GTFS Longitude": "-74.00169"
  },
  {
    "Station ID": "167",
    "Complex ID": "167",
    "GTFS Stop ID": "A32",
    "Division": "IND",
    "Line": "8th Av - Fulton St",
    "Stop Name": "W 4 St",
    "Borough": "M",
    "Daytime Routes": "A C E",
    "Structure": "Subway",
    "GTFS Latitude": "40.732338",
    "GTFS Longitude": "-74.000495"
  },
  {
    "Station ID": "167",
    "Complex ID": "167",
    "GTFS Stop ID": "D20",
    "Division": "IND",
    "Line": "6th Av - Culver",
    "Stop Name": "W 4 St",
    "Borough": "M",
    "Daytime Routes": "B D F M",
    "Structure": "Subway",
    "GTFS Latitude": "40.732338",
    "GTFS Longitude": "-74.000495"
  },
  {
    "Station ID": "168",
    "Complex ID": "168",
    "GTFS Stop ID": "A33",
    "Division": "IND",
    "Line": "8th Av - Fulton St",
    "Stop Name": "Spring St",
    "Borough": "M",
    "Daytime Routes": "C E",
    "Structure": "Subway",
    "GTFS Latitude": "40.726227",
    "GTFS Longitude": "-74.003739"
  },
  {
    "Station ID": "169",
    "Complex ID": "169",
    "GTFS Stop ID": "A34",
    "Division": "IND",
    "Line": "8th Av - Fulton St",
    "Stop Name": "Canal St",
    "Borough": "M",
    "Daytime Routes": "A C E",
    "Structure": "Subway",
    "GTFS Latitude": "40.720824",
    "GTFS Longitude": "-74.005229"
  },
  {
    "Station ID": "170",
    "Complex ID": "624",
    "GTFS Stop ID": "A36",
    "Division": "IND",
    "Line": "8th Av - Fulton St",
    "Stop Name": "Chambers St",
    "Borough": "M",
    "Daytime Routes": "A C",
    "Structure": "Subway",
    "GTFS Latitude": "40.714111",
    "GTFS Longitude": "-74.008585"
  },
  {
    "Station ID": "171",
    "Complex ID": "624",
    "GTFS Stop ID": "E01",
    "Division": "IND",
    "Line": "8th Av - Fulton St",
    "Stop Name": "World Trade Center",
    "Borough": "M",
    "Daytime Routes": "E",
    "Structure": "Subway",
    "GTFS Latitude": "40.712582",
    "GTFS Longitude": "-74.009781"
  },
  {
    "Station ID": "172",
    "Complex ID": "628",
    "GTFS Stop ID": "A38",
    "Division": "IND",
    "Line": "8th Av - Fulton St",
    "Stop Name": "Fulton St",
    "Borough": "M",
    "Daytime Routes": "A C",
    "Structure": "Subway",
    "GTFS Latitude": "40.710197",
    "GTFS Longitude": "-74.007691"
  },
  {
    "Station ID": "173",
    "Complex ID": "173",
    "GTFS Stop ID": "A40",
    "Division": "IND",
    "Line": "8th Av - Fulton St",
    "Stop Name": "High St",
    "Borough": "Bk",
    "Daytime Routes": "A C",
    "Structure": "Subway",
    "GTFS Latitude": "40.699337",
    "GTFS Longitude": "-73.990531"
  },
  {
    "Station ID": "174",
    "Complex ID": "636",
    "GTFS Stop ID": "A41",
    "Division": "IND",
    "Line": "8th Av - Fulton St",
    "Stop Name": "Jay St - MetroTech",
    "Borough": "Bk",
    "Daytime Routes": "A C F",
    "Structure": "Subway",
    "GTFS Latitude": "40.692338",
    "GTFS Longitude": "-73.987342"
  },
  {
    "Station ID": "175",
    "Complex ID": "175",
    "GTFS Stop ID": "A42",
    "Division": "IND",
    "Line": "8th Av - Fulton St",
    "Stop Name": "Hoyt - Schermerhorn Sts",
    "Borough": "Bk",
    "Daytime Routes": "A C G",
    "Structure": "Subway",
    "GTFS Latitude": "40.688484",
    "GTFS Longitude": "-73.985001"
  },
  {
    "Station ID": "176",
    "Complex ID": "176",
    "GTFS Stop ID": "A43",
    "Division": "IND",
    "Line": "8th Av - Fulton St",
    "Stop Name": "Lafayette Av",
    "Borough": "Bk",
    "Daytime Routes": "C",
    "Structure": "Subway",
    "GTFS Latitude": "40.686113",
    "GTFS Longitude": "-73.973946"
  },
  {
    "Station ID": "177",
    "Complex ID": "177",
    "GTFS Stop ID": "A44",
    "Division": "IND",
    "Line": "8th Av - Fulton St",
    "Stop Name": "Clinton - Washington Avs",
    "Borough": "Bk",
    "Daytime Routes": "C",
    "Structure": "Subway",
    "GTFS Latitude": "40.683263",
    "GTFS Longitude": "-73.965838"
  },
  {
    "Station ID": "178",
    "Complex ID": "627",
    "GTFS Stop ID": "A45",
    "Division": "IND",
    "Line": "8th Av - Fulton St",
    "Stop Name": "Franklin Av",
    "Borough": "Bk",
    "Daytime Routes": "C",
    "Structure": "Subway",
    "GTFS Latitude": "40.68138",
    "GTFS Longitude": "-73.956848"
  },
  {
    "Station ID": "179",
    "Complex ID": "179",
    "GTFS Stop ID": "A46",
    "Division": "IND",
    "Line": "8th Av - Fulton St",
    "Stop Name": "Nostrand Av",
    "Borough": "Bk",
    "Daytime Routes": "A C",
    "Structure": "Subway",
    "GTFS Latitude": "40.680438",
    "GTFS Longitude": "-73.950426"
  },
  {
    "Station ID": "180",
    "Complex ID": "180",
    "GTFS Stop ID": "A47",
    "Division": "IND",
    "Line": "8th Av - Fulton St",
    "Stop Name": "Kingston - Throop Avs",
    "Borough": "Bk",
    "Daytime Routes": "C",
    "Structure": "Subway",
    "GTFS Latitude": "40.679921",
    "GTFS Longitude": "-73.940858"
  },
  {
    "Station ID": "181",
    "Complex ID": "181",
    "GTFS Stop ID": "A48",
    "Division": "IND",
    "Line": "8th Av - Fulton St",
    "Stop Name": "Utica Av",
    "Borough": "Bk",
    "Daytime Routes": "A C",
    "Structure": "Subway",
    "GTFS Latitude": "40.679364",
    "GTFS Longitude": "-73.930729"
  },
  {
    "Station ID": "182",
    "Complex ID": "182",
    "GTFS Stop ID": "A49",
    "Division": "IND",
    "Line": "8th Av - Fulton St",
    "Stop Name": "Ralph Av",
    "Borough": "Bk",
    "Daytime Routes": "C",
    "Structure": "Subway",
    "GTFS Latitude": "40.678822",
    "GTFS Longitude": "-73.920786"
  },
  {
    "Station ID": "183",
    "Complex ID": "183",
    "GTFS Stop ID": "A50",
    "Division": "IND",
    "Line": "8th Av - Fulton St",
    "Stop Name": "Rockaway Av",
    "Borough": "Bk",
    "Daytime Routes": "C",
    "Structure": "Subway",
    "GTFS Latitude": "40.67834",
    "GTFS Longitude": "-73.911946"
  },
  {
    "Station ID": "184",
    "Complex ID": "621",
    "GTFS Stop ID": "A51",
    "Division": "IND",
    "Line": "8th Av - Fulton St",
    "Stop Name": "Broadway Jct",
    "Borough": "Bk",
    "Daytime Routes": "A C",
    "Structure": "Subway",
    "GTFS Latitude": "40.678334",
    "GTFS Longitude": "-73.905316"
  },
  {
    "Station ID": "185",
    "Complex ID": "185",
    "GTFS Stop ID": "A52",
    "Division": "IND",
    "Line": "8th Av - Fulton St",
    "Stop Name": "Liberty Av",
    "Borough": "Bk",
    "Daytime Routes": "C",
    "Structure": "Subway",
    "GTFS Latitude": "40.674542",
    "GTFS Longitude": "-73.896548"
  },
  {
    "Station ID": "186",
    "Complex ID": "186",
    "GTFS Stop ID": "A53",
    "Division": "IND",
    "Line": "8th Av - Fulton St",
    "Stop Name": "Van Siclen Av",
    "Borough": "Bk",
    "Daytime Routes": "C",
    "Structure": "Subway",
    "GTFS Latitude": "40.67271",
    "GTFS Longitude": "-73.890358"
  },
  {
    "Station ID": "187",
    "Complex ID": "187",
    "GTFS Stop ID": "A54",
    "Division": "IND",
    "Line": "8th Av - Fulton St",
    "Stop Name": "Shepherd Av",
    "Borough": "Bk",
    "Daytime Routes": "C",
    "Structure": "Subway",
    "GTFS Latitude": "40.67413",
    "GTFS Longitude": "-73.88075"
  },
  {
    "Station ID": "188",
    "Complex ID": "188",
    "GTFS Stop ID": "A55",
    "Division": "IND",
    "Line": "8th Av - Fulton St",
    "Stop Name": "Euclid Av",
    "Borough": "Bk",
    "Daytime Routes": "A C",
    "Structure": "Subway",
    "GTFS Latitude": "40.675377",
    "GTFS Longitude": "-73.872106"
  },
  {
    "Station ID": "189",
    "Complex ID": "189",
    "GTFS Stop ID": "A57",
    "Division": "IND",
    "Line": "Liberty Av",
    "Stop Name": "Grant Av",
    "Borough": "Bk",
    "Daytime Routes": "A",
    "Structure": "Subway",
    "GTFS Latitude": "40.677044",
    "GTFS Longitude": "-73.86505"
  },
  {
    "Station ID": "190",
    "Complex ID": "190",
    "GTFS Stop ID": "A59",
    "Division": "IND",
    "Line": "Liberty Av",
    "Stop Name": "80 St",
    "Borough": "Q",
    "Daytime Routes": "A",
    "Structure": "Elevated",
    "GTFS Latitude": "40.679371",
    "GTFS Longitude": "-73.858992"
  },
  {
    "Station ID": "191",
    "Complex ID": "191",
    "GTFS Stop ID": "A60",
    "Division": "IND",
    "Line": "Liberty Av",
    "Stop Name": "88 St",
    "Borough": "Q",
    "Daytime Routes": "A",
    "Structure": "Elevated",
    "GTFS Latitude": "40.679843",
    "GTFS Longitude": "-73.85147"
  },
  {
    "Station ID": "192",
    "Complex ID": "192",
    "GTFS Stop ID": "A61",
    "Division": "IND",
    "Line": "Liberty Av",
    "Stop Name": "Rockaway Blvd",
    "Borough": "Q",
    "Daytime Routes": "A",
    "Structure": "Elevated",
    "GTFS Latitude": "40.680429",
    "GTFS Longitude": "-73.843853"
  },
  {
    "Station ID": "193",
    "Complex ID": "193",
    "GTFS Stop ID": "A63",
    "Division": "IND",
    "Line": "Liberty Av",
    "Stop Name": "104 St",
    "Borough": "Q",
    "Daytime Routes": "A",
    "Structure": "Elevated",
    "GTFS Latitude": "40.681711",
    "GTFS Longitude": "-73.837683"
  },
  {
    "Station ID": "194",
    "Complex ID": "194",
    "GTFS Stop ID": "A64",
    "Division": "IND",
    "Line": "Liberty Av",
    "Stop Name": "111 St",
    "Borough": "Q",
    "Daytime Routes": "A",
    "Structure": "Elevated",
    "GTFS Latitude": "40.684331",
    "GTFS Longitude": "-73.832163"
  },
  {
    "Station ID": "195",
    "Complex ID": "195",
    "GTFS Stop ID": "A65",
    "Division": "IND",
    "Line": "Liberty Av",
    "Stop Name": "Ozone Park - Lefferts Blvd",
    "Borough": "Q",
    "Daytime Routes": "A",
    "Structure": "Elevated",
    "GTFS Latitude": "40.685951",
    "GTFS Longitude": "-73.825798"
  },
  {
    "Station ID": "196",
    "Complex ID": "196",
    "GTFS Stop ID": "H01",
    "Division": "IND",
    "Line": "Rockaway",
    "Stop Name": "Aqueduct Racetrack",
    "Borough": "Q",
    "Daytime Routes": "A",
    "Structure": "At Grade",
    "GTFS Latitude": "40.672097",
    "GTFS Longitude": "-73.835919"
  },
  {
    "Station ID": "197",
    "Complex ID": "197",
    "GTFS Stop ID": "H02",
    "Division": "IND",
    "Line": "Rockaway",
    "Stop Name": "Aqueduct - N Conduit Av",
    "Borough": "Q",
    "Daytime Routes": "A",
    "Structure": "At Grade",
    "GTFS Latitude": "40.668234",
    "GTFS Longitude": "-73.834058"
  },
  {
    "Station ID": "198",
    "Complex ID": "198",
    "GTFS Stop ID": "H03",
    "Division": "IND",
    "Line": "Rockaway",
    "Stop Name": "Howard Beach - JFK Airport",
    "Borough": "Q",
    "Daytime Routes": "A",
    "Structure": "At Grade",
    "GTFS Latitude": "40.660476",
    "GTFS Longitude": "-73.830301"
  },
  {
    "Station ID": "199",
    "Complex ID": "199",
    "GTFS Stop ID": "H04",
    "Division": "IND",
    "Line": "Rockaway",
    "Stop Name": "Broad Channel",
    "Borough": "Q",
    "Daytime Routes": "A S",
    "Structure": "At Grade",
    "GTFS Latitude": "40.608382",
    "GTFS Longitude": "-73.815925"
  },
  {
    "Station ID": "199",
    "Complex ID": "199",
    "GTFS Stop ID": "H19",
    "Division": "IND",
    "Line": "Rockaway",
    "Stop Name": "Broad Channel",
    "Borough": "Q",
    "Daytime Routes": "A S",
    "Structure": "At Grade",
    "GTFS Latitude": "40.608382",
    "GTFS Longitude": "-73.815925"
  },
  {
    "Station ID": "200",
    "Complex ID": "200",
    "GTFS Stop ID": "H12",
    "Division": "IND",
    "Line": "Rockaway",
    "Stop Name": "Beach 90 St",
    "Borough": "Q",
    "Daytime Routes": "A S",
    "Structure": "Viaduct",
    "GTFS Latitude": "40.588034",
    "GTFS Longitude": "-73.813641"
  },
  {
    "Station ID": "201",
    "Complex ID": "201",
    "GTFS Stop ID": "H13",
    "Division": "IND",
    "Line": "Rockaway",
    "Stop Name": "Beach 98 St",
    "Borough": "Q",
    "Daytime Routes": "A S",
    "Structure": "Viaduct",
    "GTFS Latitude": "40.585307",
    "GTFS Longitude": "-73.820558"
  },
  {
    "Station ID": "202",
    "Complex ID": "202",
    "GTFS Stop ID": "H14",
    "Division": "IND",
    "Line": "Rockaway",
    "Stop Name": "Beach 105 St",
    "Borough": "Q",
    "Daytime Routes": "A S",
    "Structure": "Viaduct",
    "GTFS Latitude": "40.583209",
    "GTFS Longitude": "-73.827559"
  },
  {
    "Station ID": "203",
    "Complex ID": "203",
    "GTFS Stop ID": "H15",
    "Division": "IND",
    "Line": "Rockaway",
    "Stop Name": "Rockaway Park - Beach 116 St",
    "Borough": "Q",
    "Daytime Routes": "A S",
    "Structure": "At Grade",
    "GTFS Latitude": "40.580903",
    "GTFS Longitude": "-73.835592"
  },
  {
    "Station ID": "204",
    "Complex ID": "204",
    "GTFS Stop ID": "H06",
    "Division": "IND",
    "Line": "Rockaway",
    "Stop Name": "Beach 67 St",
    "Borough": "Q",
    "Daytime Routes": "A",
    "Structure": "Viaduct",
    "GTFS Latitude": "40.590927",
    "GTFS Longitude": "-73.796924"
  },
  {
    "Station ID": "205",
    "Complex ID": "205",
    "GTFS Stop ID": "H07",
    "Division": "IND",
    "Line": "Rockaway",
    "Stop Name": "Beach 60 St",
    "Borough": "Q",
    "Daytime Routes": "A",
    "Structure": "Viaduct",
    "GTFS Latitude": "40.592374",
    "GTFS Longitude": "-73.788522"
  },
  {
    "Station ID": "206",
    "Complex ID": "206",
    "GTFS Stop ID": "H08",
    "Division": "IND",
    "Line": "Rockaway",
    "Stop Name": "Beach 44 St",
    "Borough": "Q",
    "Daytime Routes": "A",
    "Structure": "Viaduct",
    "GTFS Latitude": "40.592943",
    "GTFS Longitude": "-73.776013"
  },
  {
    "Station ID": "207",
    "Complex ID": "207",
    "GTFS Stop ID": "H09",
    "Division": "IND",
    "Line": "Rockaway",
    "Stop Name": "Beach 36 St",
    "Borough": "Q",
    "Daytime Routes": "A",
    "Structure": "Viaduct",
    "GTFS Latitude": "40.595398",
    "GTFS Longitude": "-73.768175"
  },
  {
    "Station ID": "208",
    "Complex ID": "208",
    "GTFS Stop ID": "H10",
    "Division": "IND",
    "Line": "Rockaway",
    "Stop Name": "Beach 25 St",
    "Borough": "Q",
    "Daytime Routes": "A",
    "Structure": "Viaduct",
    "GTFS Latitude": "40.600066",
    "GTFS Longitude": "-73.761353"
  },
  {
    "Station ID": "209",
    "Complex ID": "209",
    "GTFS Stop ID": "H11",
    "Division": "IND",
    "Line": "Rockaway",
    "Stop Name": "Far Rockaway - Mott Av",
    "Borough": "Q",
    "Daytime Routes": "A",
    "Structure": "Viaduct",
    "GTFS Latitude": "40.603995",
    "GTFS Longitude": "-73.755405"
  },
  {
    "Station ID": "210",
    "Complex ID": "210",
    "GTFS Stop ID": "D01",
    "Division": "IND",
    "Line": "Concourse",
    "Stop Name": "Norwood - 205 St",
    "Borough": "Bx",
    "Daytime Routes": "D",
    "Structure": "Subway",
    "GTFS Latitude": "40.874811",
    "GTFS Longitude": "-73.878855"
  },
  {
    "Station ID": "211",
    "Complex ID": "211",
    "GTFS Stop ID": "D03",
    "Division": "IND",
    "Line": "Concourse",
    "Stop Name": "Bedford Park Blvd",
    "Borough": "Bx",
    "Daytime Routes": "B D",
    "Structure": "Subway",
    "GTFS Latitude": "40.873244",
    "GTFS Longitude": "-73.887138"
  },
  {
    "Station ID": "212",
    "Complex ID": "212",
    "GTFS Stop ID": "D04",
    "Division": "IND",
    "Line": "Concourse",
    "Stop Name": "Kingsbridge Rd",
    "Borough": "Bx",
    "Daytime Routes": "B D",
    "Structure": "Subway",
    "GTFS Latitude": "40.866978",
    "GTFS Longitude": "-73.893509"
  },
  {
    "Station ID": "213",
    "Complex ID": "213",
    "GTFS Stop ID": "D05",
    "Division": "IND",
    "Line": "Concourse",
    "Stop Name": "Fordham Rd",
    "Borough": "Bx",
    "Daytime Routes": "B D",
    "Structure": "Subway",
    "GTFS Latitude": "40.861296",
    "GTFS Longitude": "-73.897749"
  },
  {
    "Station ID": "214",
    "Complex ID": "214",
    "GTFS Stop ID": "D06",
    "Division": "IND",
    "Line": "Concourse",
    "Stop Name": "182-183 Sts",
    "Borough": "Bx",
    "Daytime Routes": "B D",
    "Structure": "Subway",
    "GTFS Latitude": "40.856093",
    "GTFS Longitude": "-73.900741"
  },
  {
    "Station ID": "215",
    "Complex ID": "215",
    "GTFS Stop ID": "D07",
    "Division": "IND",
    "Line": "Concourse",
    "Stop Name": "Tremont Av",
    "Borough": "Bx",
    "Daytime Routes": "B D",
    "Structure": "Subway",
    "GTFS Latitude": "40.85041",
    "GTFS Longitude": "-73.905227"
  },
  {
    "Station ID": "216",
    "Complex ID": "216",
    "GTFS Stop ID": "D08",
    "Division": "IND",
    "Line": "Concourse",
    "Stop Name": "174-175 Sts",
    "Borough": "Bx",
    "Daytime Routes": "B D",
    "Structure": "Subway",
    "GTFS Latitude": "40.8459",
    "GTFS Longitude": "-73.910136"
  },
  {
    "Station ID": "217",
    "Complex ID": "217",
    "GTFS Stop ID": "D09",
    "Division": "IND",
    "Line": "Concourse",
    "Stop Name": "170 St",
    "Borough": "Bx",
    "Daytime Routes": "B D",
    "Structure": "Subway",
    "GTFS Latitude": "40.839306",
    "GTFS Longitude": "-73.9134"
  },
  {
    "Station ID": "218",
    "Complex ID": "218",
    "GTFS Stop ID": "D10",
    "Division": "IND",
    "Line": "Concourse",
    "Stop Name": "167 St",
    "Borough": "Bx",
    "Daytime Routes": "B D",
    "Structure": "Subway",
    "GTFS Latitude": "40.833771",
    "GTFS Longitude": "-73.91844"
  },
  {
    "Station ID": "219",
    "Complex ID": "604",
    "GTFS Stop ID": "D11",
    "Division": "IND",
    "Line": "Concourse",
    "Stop Name": "161 St - Yankee Stadium",
    "Borough": "Bx",
    "Daytime Routes": "B D",
    "Structure": "Subway",
    "GTFS Latitude": "40.827905",
    "GTFS Longitude": "-73.925651"
  },
  {
    "Station ID": "220",
    "Complex ID": "220",
    "GTFS Stop ID": "D12",
    "Division": "IND",
    "Line": "Concourse",
    "Stop Name": "155 St",
    "Borough": "M",
    "Daytime Routes": "B D",
    "Structure": "Subway",
    "GTFS Latitude": "40.830135",
    "GTFS Longitude": "-73.938209"
  },
  {
    "Station ID": "221",
    "Complex ID": "221",
    "GTFS Stop ID": "B04",
    "Division": "IND",
    "Line": "63rd St",
    "Stop Name": "21 St - Queensbridge",
    "Borough": "Q",
    "Daytime Routes": "F",
    "Structure": "Subway",
    "GTFS Latitude": "40.754203",
    "GTFS Longitude": "-73.942836"
  },
  {
    "Station ID": "222",
    "Complex ID": "222",
    "GTFS Stop ID": "B06",
    "Division": "IND",
    "Line": "63rd St",
    "Stop Name": "Roosevelt Island",
    "Borough": "M",
    "Daytime Routes": "F",
    "Structure": "Subway",
    "GTFS Latitude": "40.759145",
    "GTFS Longitude": "-73.95326"
  },
  {
    "Station ID": "223",
    "Complex ID": "223",
    "GTFS Stop ID": "B08",
    "Division": "IND",
    "Line": "63rd St",
    "Stop Name": "Lexington Av/63 St",
    "Borough": "M",
    "Daytime Routes": "F Q",
    "Structure": "Subway",
    "GTFS Latitude": "40.764629",
    "GTFS Longitude": "-73.966113"
  },
  {
    "Station ID": "224",
    "Complex ID": "224",
    "GTFS Stop ID": "B10",
    "Division": "IND",
    "Line": "6th Av - Culver",
    "Stop Name": "57 St",
    "Borough": "M",
    "Daytime Routes": "F",
    "Structure": "Subway",
    "GTFS Latitude": "40.763972",
    "GTFS Longitude": "-73.97745"
  },
  {
    "Station ID": "225",
    "Complex ID": "225",
    "GTFS Stop ID": "D15",
    "Division": "IND",
    "Line": "6th Av - Culver",
    "Stop Name": "47-50 Sts - Rockefeller Ctr",
    "Borough": "M",
    "Daytime Routes": "B D F M",
    "Structure": "Subway",
    "GTFS Latitude": "40.758663",
    "GTFS Longitude": "-73.981329"
  },
  {
    "Station ID": "226",
    "Complex ID": "609",
    "GTFS Stop ID": "D16",
    "Division": "IND",
    "Line": "6th Av - Culver",
    "Stop Name": "42 St - Bryant Pk",
    "Borough": "M",
    "Daytime Routes": "B D F M",
    "Structure": "Subway",
    "GTFS Latitude": "40.754222",
    "GTFS Longitude": "-73.984569"
  },
  {
    "Station ID": "227",
    "Complex ID": "607",
    "GTFS Stop ID": "D17",
    "Division": "IND",
    "Line": "6th Av - Culver",
    "Stop Name": "34 St - Herald Sq",
    "Borough": "M",
    "Daytime Routes": "B D F M",
    "Structure": "Subway",
    "GTFS Latitude": "40.749719",
    "GTFS Longitude": "-73.987823"
  },
  {
    "Station ID": "228",
    "Complex ID": "228",
    "GTFS Stop ID": "D18",
    "Division": "IND",
    "Line": "6th Av - Culver",
    "Stop Name": "23 St",
    "Borough": "M",
    "Daytime Routes": "F M",
    "Structure": "Subway",
    "GTFS Latitude": "40.742878",
    "GTFS Longitude": "-73.992821"
  },
  {
    "Station ID": "229",
    "Complex ID": "601",
    "GTFS Stop ID": "D19",
    "Division": "IND",
    "Line": "6th Av - Culver",
    "Stop Name": "14 St",
    "Borough": "M",
    "Daytime Routes": "F M",
    "Structure": "Subway",
    "GTFS Latitude": "40.738228",
    "GTFS Longitude": "-73.996209"
  },
  {
    "Station ID": "230",
    "Complex ID": "619",
    "GTFS Stop ID": "D21",
    "Division": "IND",
    "Line": "6th Av - Culver",
    "Stop Name": "Broadway-Lafayette St",
    "Borough": "M",
    "Daytime Routes": "B D F M",
    "Structure": "Subway",
    "GTFS Latitude": "40.725297",
    "GTFS Longitude": "-73.996204"
  },
  {
    "Station ID": "231",
    "Complex ID": "231",
    "GTFS Stop ID": "D22",
    "Division": "IND",
    "Line": "6th Av - Culver",
    "Stop Name": "Grand St",
    "Borough": "M",
    "Daytime Routes": "B D",
    "Structure": "Subway",
    "GTFS Latitude": "40.718267",
    "GTFS Longitude": "-73.993753"
  },
  {
    "Station ID": "232",
    "Complex ID": "232",
    "GTFS Stop ID": "F14",
    "Division": "IND",
    "Line": "6th Av - Culver",
    "Stop Name": "2 Av",
    "Borough": "M",
    "Daytime Routes": "F",
    "Structure": "Subway",
    "GTFS Latitude": "40.723402",
    "GTFS Longitude": "-73.989938"
  },
  {
    "Station ID": "233",
    "Complex ID": "625",
    "GTFS Stop ID": "F15",
    "Division": "IND",
    "Line": "6th Av - Culver",
    "Stop Name": "Delancey St",
    "Borough": "M",
    "Daytime Routes": "F",
    "Structure": "Subway",
    "GTFS Latitude": "40.718611",
    "GTFS Longitude": "-73.988114"
  },
  {
    "Station ID": "234",
    "Complex ID": "234",
    "GTFS Stop ID": "F16",
    "Division": "IND",
    "Line": "6th Av - Culver",
    "Stop Name": "East Broadway",
    "Borough": "M",
    "Daytime Routes": "F",
    "Structure": "Subway",
    "GTFS Latitude": "40.713715",
    "GTFS Longitude": "-73.990173"
  },
  {
    "Station ID": "235",
    "Complex ID": "235",
    "GTFS Stop ID": "F18",
    "Division": "IND",
    "Line": "6th Av - Culver",
    "Stop Name": "York St",
    "Borough": "Bk",
    "Daytime Routes": "F",
    "Structure": "Subway",
    "GTFS Latitude": "40.701397",
    "GTFS Longitude": "-73.986751"
  },
  {
    "Station ID": "236",
    "Complex ID": "236",
    "GTFS Stop ID": "F20",
    "Division": "IND",
    "Line": "6th Av - Culver",
    "Stop Name": "Bergen St",
    "Borough": "Bk",
    "Daytime Routes": "F G",
    "Structure": "Subway",
    "GTFS Latitude": "40.686145",
    "GTFS Longitude": "-73.990862"
  },
  {
    "Station ID": "237",
    "Complex ID": "237",
    "GTFS Stop ID": "F21",
    "Division": "IND",
    "Line": "6th Av - Culver",
    "Stop Name": "Carroll St",
    "Borough": "Bk",
    "Daytime Routes": "F G",
    "Structure": "Subway",
    "GTFS Latitude": "40.680303",
    "GTFS Longitude": "-73.995048"
  },
  {
    "Station ID": "238",
    "Complex ID": "238",
    "GTFS Stop ID": "F22",
    "Division": "IND",
    "Line": "6th Av - Culver",
    "Stop Name": "Smith - 9 Sts",
    "Borough": "Bk",
    "Daytime Routes": "F G",
    "Structure": "Viaduct",
    "GTFS Latitude": "40.67358",
    "GTFS Longitude": "-73.995959"
  },
  {
    "Station ID": "239",
    "Complex ID": "608",
    "GTFS Stop ID": "F23",
    "Division": "IND",
    "Line": "6th Av - Culver",
    "Stop Name": "4 Av",
    "Borough": "Bk",
    "Daytime Routes": "F G",
    "Structure": "Viaduct",
    "GTFS Latitude": "40.670272",
    "GTFS Longitude": "-73.989779"
  },
  {
    "Station ID": "240",
    "Complex ID": "240",
    "GTFS Stop ID": "F24",
    "Division": "IND",
    "Line": "6th Av - Culver",
    "Stop Name": "7 Av",
    "Borough": "Bk",
    "Daytime Routes": "F G",
    "Structure": "Subway",
    "GTFS Latitude": "40.666271",
    "GTFS Longitude": "-73.980305"
  },
  {
    "Station ID": "241",
    "Complex ID": "241",
    "GTFS Stop ID": "F25",
    "Division": "IND",
    "Line": "6th Av - Culver",
    "Stop Name": "15 St - Prospect Park",
    "Borough": "Bk",
    "Daytime Routes": "F G",
    "Structure": "Subway",
    "GTFS Latitude": "40.660365",
    "GTFS Longitude": "-73.979493"
  },
  {
    "Station ID": "242",
    "Complex ID": "242",
    "GTFS Stop ID": "F26",
    "Division": "IND",
    "Line": "6th Av - Culver",
    "Stop Name": "Fort Hamilton Pkwy",
    "Borough": "Bk",
    "Daytime Routes": "F G",
    "Structure": "Subway",
    "GTFS Latitude": "40.650782",
    "GTFS Longitude": "-73.975776"
  },
  {
    "Station ID": "243",
    "Complex ID": "243",
    "GTFS Stop ID": "F27",
    "Division": "IND",
    "Line": "6th Av - Culver",
    "Stop Name": "Church Av",
    "Borough": "Bk",
    "Daytime Routes": "F",
    "Structure": "Subway",
    "GTFS Latitude": "40.644041",
    "GTFS Longitude": "-73.979678"
  },
  {
    "Station ID": "244",
    "Complex ID": "244",
    "GTFS Stop ID": "F29",
    "Division": "IND",
    "Line": "6th Av - Culver",
    "Stop Name": "Ditmas Av",
    "Borough": "Bk",
    "Daytime Routes": "F",
    "Structure": "Elevated",
    "GTFS Latitude": "40.636119",
    "GTFS Longitude": "-73.978172"
  },
  {
    "Station ID": "245",
    "Complex ID": "245",
    "GTFS Stop ID": "F30",
    "Division": "IND",
    "Line": "6th Av - Culver",
    "Stop Name": "18 Av",
    "Borough": "Bk",
    "Daytime Routes": "F",
    "Structure": "Elevated",
    "GTFS Latitude": "40.629755",
    "GTFS Longitude": "-73.976971"
  },
  {
    "Station ID": "246",
    "Complex ID": "246",
    "GTFS Stop ID": "F31",
    "Division": "IND",
    "Line": "6th Av - Culver",
    "Stop Name": "Avenue I",
    "Borough": "Bk",
    "Daytime Routes": "F",
    "Structure": "Elevated",
    "GTFS Latitude": "40.625322",
    "GTFS Longitude": "-73.976127"
  },
  {
    "Station ID": "247",
    "Complex ID": "247",
    "GTFS Stop ID": "F32",
    "Division": "IND",
    "Line": "6th Av - Culver",
    "Stop Name": "Bay Pkwy",
    "Borough": "Bk",
    "Daytime Routes": "F",
    "Structure": "Elevated",
    "GTFS Latitude": "40.620769",
    "GTFS Longitude": "-73.975264"
  },
  {
    "Station ID": "248",
    "Complex ID": "248",
    "GTFS Stop ID": "F33",
    "Division": "IND",
    "Line": "6th Av - Culver",
    "Stop Name": "Avenue N",
    "Borough": "Bk",
    "Daytime Routes": "F",
    "Structure": "Elevated",
    "GTFS Latitude": "40.61514",
    "GTFS Longitude": "-73.974197"
  },
  {
    "Station ID": "249",
    "Complex ID": "249",
    "GTFS Stop ID": "F34",
    "Division": "IND",
    "Line": "6th Av - Culver",
    "Stop Name": "Avenue P",
    "Borough": "Bk",
    "Daytime Routes": "F",
    "Structure": "Elevated",
    "GTFS Latitude": "40.608944",
    "GTFS Longitude": "-73.973022"
  },
  {
    "Station ID": "250",
    "Complex ID": "250",
    "GTFS Stop ID": "F35",
    "Division": "IND",
    "Line": "6th Av - Culver",
    "Stop Name": "Kings Hwy",
    "Borough": "Bk",
    "Daytime Routes": "F",
    "Structure": "Elevated",
    "GTFS Latitude": "40.603217",
    "GTFS Longitude": "-73.972361"
  },
  {
    "Station ID": "251",
    "Complex ID": "251",
    "GTFS Stop ID": "F36",
    "Division": "IND",
    "Line": "6th Av - Culver",
    "Stop Name": "Avenue U",
    "Borough": "Bk",
    "Daytime Routes": "F",
    "Structure": "Elevated",
    "GTFS Latitude": "40.596063",
    "GTFS Longitude": "-73.973357"
  },
  {
    "Station ID": "252",
    "Complex ID": "252",
    "GTFS Stop ID": "F38",
    "Division": "IND",
    "Line": "6th Av - Culver",
    "Stop Name": "Avenue X",
    "Borough": "Bk",
    "Daytime Routes": "F",
    "Structure": "Elevated",
    "GTFS Latitude": "40.58962",
    "GTFS Longitude": "-73.97425"
  },
  {
    "Station ID": "253",
    "Complex ID": "253",
    "GTFS Stop ID": "F39",
    "Division": "IND",
    "Line": "6th Av - Culver",
    "Stop Name": "Neptune Av",
    "Borough": "Bk",
    "Daytime Routes": "F",
    "Structure": "Elevated",
    "GTFS Latitude": "40.581011",
    "GTFS Longitude": "-73.974574"
  },
  {
    "Station ID": "254",
    "Complex ID": "254",
    "GTFS Stop ID": "F01",
    "Division": "IND",
    "Line": "Queens Blvd",
    "Stop Name": "Jamaica - 179 St",
    "Borough": "Q",
    "Daytime Routes": "F",
    "Structure": "Subway",
    "GTFS Latitude": "40.712646",
    "GTFS Longitude": "-73.783817"
  },
  {
    "Station ID": "255",
    "Complex ID": "255",
    "GTFS Stop ID": "F02",
    "Division": "IND",
    "Line": "Queens Blvd",
    "Stop Name": "169 St",
    "Borough": "Q",
    "Daytime Routes": "F",
    "Structure": "Subway",
    "GTFS Latitude": "40.71047",
    "GTFS Longitude": "-73.793604"
  },
  {
    "Station ID": "256",
    "Complex ID": "256",
    "GTFS Stop ID": "F03",
    "Division": "IND",
    "Line": "Queens Blvd",
    "Stop Name": "Parsons Blvd",
    "Borough": "Q",
    "Daytime Routes": "F",
    "Structure": "Subway",
    "GTFS Latitude": "40.707564",
    "GTFS Longitude": "-73.803326"
  },
  {
    "Station ID": "257",
    "Complex ID": "257",
    "GTFS Stop ID": "F04",
    "Division": "IND",
    "Line": "Queens Blvd",
    "Stop Name": "Sutphin Blvd",
    "Borough": "Q",
    "Daytime Routes": "F",
    "Structure": "Subway",
    "GTFS Latitude": "40.70546",
    "GTFS Longitude": "-73.810708"
  },
  {
    "Station ID": "258",
    "Complex ID": "258",
    "GTFS Stop ID": "F05",
    "Division": "IND",
    "Line": "Queens Blvd",
    "Stop Name": "Briarwood - Van Wyck Blvd",
    "Borough": "Q",
    "Daytime Routes": "E F",
    "Structure": "Subway",
    "GTFS Latitude": "40.709179",
    "GTFS Longitude": "-73.820574"
  },
  {
    "Station ID": "259",
    "Complex ID": "259",
    "GTFS Stop ID": "F06",
    "Division": "IND",
    "Line": "Queens Blvd",
    "Stop Name": "Kew Gardens - Union Tpke",
    "Borough": "Q",
    "Daytime Routes": "E F",
    "Structure": "Subway",
    "GTFS Latitude": "40.714441",
    "GTFS Longitude": "-73.831008"
  },
  {
    "Station ID": "260",
    "Complex ID": "260",
    "GTFS Stop ID": "F07",
    "Division": "IND",
    "Line": "Queens Blvd",
    "Stop Name": "75 Av",
    "Borough": "Q",
    "Daytime Routes": "E F",
    "Structure": "Subway",
    "GTFS Latitude": "40.718331",
    "GTFS Longitude": "-73.837324"
  },
  {
    "Station ID": "261",
    "Complex ID": "261",
    "GTFS Stop ID": "G08",
    "Division": "IND",
    "Line": "Queens Blvd",
    "Stop Name": "Forest Hills - 71 Av",
    "Borough": "Q",
    "Daytime Routes": "E F M R",
    "Structure": "Subway",
    "GTFS Latitude": "40.721691",
    "GTFS Longitude": "-73.844521"
  },
  {
    "Station ID": "262",
    "Complex ID": "262",
    "GTFS Stop ID": "G09",
    "Division": "IND",
    "Line": "Queens Blvd",
    "Stop Name": "67 Av",
    "Borough": "Q",
    "Daytime Routes": "M R",
    "Structure": "Subway",
    "GTFS Latitude": "40.726523",
    "GTFS Longitude": "-73.852719"
  },
  {
    "Station ID": "263",
    "Complex ID": "263",
    "GTFS Stop ID": "G10",
    "Division": "IND",
    "Line": "Queens Blvd",
    "Stop Name": "63 Dr - Rego Park",
    "Borough": "Q",
    "Daytime Routes": "M R",
    "Structure": "Subway",
    "GTFS Latitude": "40.729846",
    "GTFS Longitude": "-73.861604"
  },
  {
    "Station ID": "264",
    "Complex ID": "264",
    "GTFS Stop ID": "G11",
    "Division": "IND",
    "Line": "Queens Blvd",
    "Stop Name": "Woodhaven Blvd",
    "Borough": "Q",
    "Daytime Routes": "M R",
    "Structure": "Subway",
    "GTFS Latitude": "40.733106",
    "GTFS Longitude": "-73.869229"
  },
  {
    "Station ID": "265",
    "Complex ID": "265",
    "GTFS Stop ID": "G12",
    "Division": "IND",
    "Line": "Queens Blvd",
    "Stop Name": "Grand Av - Newtown",
    "Borough": "Q",
    "Daytime Routes": "M R",
    "Structure": "Subway",
    "GTFS Latitude": "40.737015",
    "GTFS Longitude": "-73.877223"
  },
  {
    "Station ID": "266",
    "Complex ID": "266",
    "GTFS Stop ID": "G13",
    "Division": "IND",
    "Line": "Queens Blvd",
    "Stop Name": "Elmhurst Av",
    "Borough": "Q",
    "Daytime Routes": "M R",
    "Structure": "Subway",
    "GTFS Latitude": "40.742454",
    "GTFS Longitude": "-73.882017"
  },
  {
    "Station ID": "267",
    "Complex ID": "616",
    "GTFS Stop ID": "G14",
    "Division": "IND",
    "Line": "Queens Blvd",
    "Stop Name": "Jackson Hts - Roosevelt Av",
    "Borough": "Q",
    "Daytime Routes": "E F M R",
    "Structure": "Subway",
    "GTFS Latitude": "40.746644",
    "GTFS Longitude": "-73.891338"
  },
  {
    "Station ID": "268",
    "Complex ID": "268",
    "GTFS Stop ID": "G15",
    "Division": "IND",
    "Line": "Queens Blvd",
    "Stop Name": "65 St",
    "Borough": "Q",
    "Daytime Routes": "M R",
    "Structure": "Subway",
    "GTFS Latitude": "40.749669",
    "GTFS Longitude": "-73.898453"
  },
  {
    "Station ID": "269",
    "Complex ID": "269",
    "GTFS Stop ID": "G16",
    "Division": "IND",
    "Line": "Queens Blvd",
    "Stop Name": "Northern Blvd",
    "Borough": "Q",
    "Daytime Routes": "M R",
    "Structure": "Subway",
    "GTFS Latitude": "40.752885",
    "GTFS Longitude": "-73.906006"
  },
  {
    "Station ID": "270",
    "Complex ID": "270",
    "GTFS Stop ID": "G18",
    "Division": "IND",
    "Line": "Queens Blvd",
    "Stop Name": "46 St",
    "Borough": "Q",
    "Daytime Routes": "M R",
    "Structure": "Subway",
    "GTFS Latitude": "40.756312",
    "GTFS Longitude": "-73.913333"
  },
  {
    "Station ID": "271",
    "Complex ID": "271",
    "GTFS Stop ID": "G19",
    "Division": "IND",
    "Line": "Queens Blvd",
    "Stop Name": "Steinway St",
    "Borough": "Q",
    "Daytime Routes": "M R",
    "Structure": "Subway",
    "GTFS Latitude": "40.756879",
    "GTFS Longitude": "-73.92074"
  },
  {
    "Station ID": "272",
    "Complex ID": "272",
    "GTFS Stop ID": "G20",
    "Division": "IND",
    "Line": "Queens Blvd",
    "Stop Name": "36 St",
    "Borough": "Q",
    "Daytime Routes": "M R",
    "Structure": "Subway",
    "GTFS Latitude": "40.752039",
    "GTFS Longitude": "-73.928781"
  },
  {
    "Station ID": "273",
    "Complex ID": "273",
    "GTFS Stop ID": "G21",
    "Division": "IND",
    "Line": "Queens Blvd",
    "Stop Name": "Queens Plaza",
    "Borough": "Q",
    "Daytime Routes": "E M R",
    "Structure": "Subway",
    "GTFS Latitude": "40.748973",
    "GTFS Longitude": "-73.937243"
  },
  {
    "Station ID": "274",
    "Complex ID": "606",
    "GTFS Stop ID": "F09",
    "Division": "IND",
    "Line": "Queens Blvd",
    "Stop Name": "Court Sq",
    "Borough": "Q",
    "Daytime Routes": "E M",
    "Structure": "Subway",
    "GTFS Latitude": "40.747846",
    "GTFS Longitude": "-73.946"
  },
  {
    "Station ID": "275",
    "Complex ID": "612",
    "GTFS Stop ID": "F11",
    "Division": "IND",
    "Line": "Queens Blvd",
    "Stop Name": "Lexington Av/53 St",
    "Borough": "M",
    "Daytime Routes": "E M",
    "Structure": "Subway",
    "GTFS Latitude": "40.757552",
    "GTFS Longitude": "-73.969055"
  },
  {
    "Station ID": "276",
    "Complex ID": "276",
    "GTFS Stop ID": "F12",
    "Division": "IND",
    "Line": "Queens Blvd",
    "Stop Name": "5 Av/53 St",
    "Borough": "M",
    "Daytime Routes": "E M",
    "Structure": "Subway",
    "GTFS Latitude": "40.760167",
    "GTFS Longitude": "-73.975224"
  },
  {
    "Station ID": "277",
    "Complex ID": "277",
    "GTFS Stop ID": "D14",
    "Division": "IND",
    "Line": "Queens Blvd",
    "Stop Name": "7 Av",
    "Borough": "M",
    "Daytime Routes": "B D E",
    "Structure": "Subway",
    "GTFS Latitude": "40.762862",
    "GTFS Longitude": "-73.981637"
  },
  {
    "Station ID": "278",
    "Complex ID": "278",
    "GTFS Stop ID": "G05",
    "Division": "IND",
    "Line": "Queens - Archer",
    "Stop Name": "Jamaica Center - Parsons/Archer",
    "Borough": "Q",
    "Daytime Routes": "E J Z",
    "Structure": "Subway",
    "GTFS Latitude": "40.702147",
    "GTFS Longitude": "-73.801109"
  },
  {
    "Station ID": "279",
    "Complex ID": "279",
    "GTFS Stop ID": "G06",
    "Division": "IND",
    "Line": "Queens - Archer",
    "Stop Name": "Sutphin Blvd - Archer Av - JFK Airport",
    "Borough": "Q",
    "Daytime Routes": "E J Z",
    "Structure": "Subway",
    "GTFS Latitude": "40.700486",
    "GTFS Longitude": "-73.807969"
  },
  {
    "Station ID": "280",
    "Complex ID": "280",
    "GTFS Stop ID": "G07",
    "Division": "IND",
    "Line": "Queens - Archer",
    "Stop Name": "Jamaica - Van Wyck",
    "Borough": "Q",
    "Daytime Routes": "E",
    "Structure": "Subway",
    "GTFS Latitude": "40.702566",
    "GTFS Longitude": "-73.816859"
  },
  {
    "Station ID": "281",
    "Complex ID": "606",
    "GTFS Stop ID": "G22",
    "Division": "IND",
    "Line": "Crosstown",
    "Stop Name": "Court Sq",
    "Borough": "Q",
    "Daytime Routes": "G",
    "Structure": "Subway",
    "GTFS Latitude": "40.746554",
    "GTFS Longitude": "-73.943832"
  },
  {
    "Station ID": "282",
    "Complex ID": "282",
    "GTFS Stop ID": "G24",
    "Division": "IND",
    "Line": "Crosstown",
    "Stop Name": "21 St",
    "Borough": "Q",
    "Daytime Routes": "G",
    "Structure": "Subway",
    "GTFS Latitude": "40.744065",
    "GTFS Longitude": "-73.949724"
  },
  {
    "Station ID": "283",
    "Complex ID": "283",
    "GTFS Stop ID": "G26",
    "Division": "IND",
    "Line": "Crosstown",
    "Stop Name": "Greenpoint Av",
    "Borough": "Bk",
    "Daytime Routes": "G",
    "Structure": "Subway",
    "GTFS Latitude": "40.731352",
    "GTFS Longitude": "-73.954449"
  },
  {
    "Station ID": "284",
    "Complex ID": "284",
    "GTFS Stop ID": "G28",
    "Division": "IND",
    "Line": "Crosstown",
    "Stop Name": "Nassau Av",
    "Borough": "Bk",
    "Daytime Routes": "G",
    "Structure": "Subway",
    "GTFS Latitude": "40.724635",
    "GTFS Longitude": "-73.951277"
  },
  {
    "Station ID": "285",
    "Complex ID": "629",
    "GTFS Stop ID": "G29",
    "Division": "IND",
    "Line": "Crosstown",
    "Stop Name": "Metropolitan Av",
    "Borough": "Bk",
    "Daytime Routes": "G",
    "Structure": "Subway",
    "GTFS Latitude": "40.712792",
    "GTFS Longitude": "-73.951418"
  },
  {
    "Station ID": "286",
    "Complex ID": "286",
    "GTFS Stop ID": "G30",
    "Division": "IND",
    "Line": "Crosstown",
    "Stop Name": "Broadway",
    "Borough": "Bk",
    "Daytime Routes": "G",
    "Structure": "Subway",
    "GTFS Latitude": "40.706092",
    "GTFS Longitude": "-73.950308"
  },
  {
    "Station ID": "287",
    "Complex ID": "287",
    "GTFS Stop ID": "G31",
    "Division": "IND",
    "Line": "Crosstown",
    "Stop Name": "Flushing Av",
    "Borough": "Bk",
    "Daytime Routes": "G",
    "Structure": "Subway",
    "GTFS Latitude": "40.700377",
    "GTFS Longitude": "-73.950234"
  },
  {
    "Station ID": "288",
    "Complex ID": "288",
    "GTFS Stop ID": "G32",
    "Division": "IND",
    "Line": "Crosstown",
    "Stop Name": "Myrtle - Willoughby Avs",
    "Borough": "Bk",
    "Daytime Routes": "G",
    "Structure": "Subway",
    "GTFS Latitude": "40.694568",
    "GTFS Longitude": "-73.949046"
  },
  {
    "Station ID": "289",
    "Complex ID": "289",
    "GTFS Stop ID": "G33",
    "Division": "IND",
    "Line": "Crosstown",
    "Stop Name": "Bedford - Nostrand Avs",
    "Borough": "Bk",
    "Daytime Routes": "G",
    "Structure": "Subway",
    "GTFS Latitude": "40.689627",
    "GTFS Longitude": "-73.953522"
  },
  {
    "Station ID": "290",
    "Complex ID": "290",
    "GTFS Stop ID": "G34",
    "Division": "IND",
    "Line": "Crosstown",
    "Stop Name": "Classon Av",
    "Borough": "Bk",
    "Daytime Routes": "G",
    "Structure": "Subway",
    "GTFS Latitude": "40.688873",
    "GTFS Longitude": "-73.96007"
  },
  {
    "Station ID": "291",
    "Complex ID": "291",
    "GTFS Stop ID": "G35",
    "Division": "IND",
    "Line": "Crosstown",
    "Stop Name": "Clinton - Washington Avs",
    "Borough": "Bk",
    "Daytime Routes": "G",
    "Structure": "Subway",
    "GTFS Latitude": "40.688089",
    "GTFS Longitude": "-73.966839"
  },
  {
    "Station ID": "292",
    "Complex ID": "292",
    "GTFS Stop ID": "G36",
    "Division": "IND",
    "Line": "Crosstown",
    "Stop Name": "Fulton St",
    "Borough": "Bk",
    "Daytime Routes": "G",
    "Structure": "Subway",
    "GTFS Latitude": "40.687119",
    "GTFS Longitude": "-73.975375"
  },
  {
    "Station ID": "293",
    "Complex ID": "293",
    "GTFS Stop ID": "101",
    "Division": "IRT",
    "Line": "Broadway - 7Av",
    "Stop Name": "Van Cortlandt Park - 242 St",
    "Borough": "Bx",
    "Daytime Routes": "1",
    "Structure": "Elevated",
    "GTFS Latitude": "40.889248",
    "GTFS Longitude": "-73.898583"
  },
  {
    "Station ID": "294",
    "Complex ID": "294",
    "GTFS Stop ID": "103",
    "Division": "IRT",
    "Line": "Broadway - 7Av",
    "Stop Name": "238 St",
    "Borough": "Bx",
    "Daytime Routes": "1",
    "Structure": "Elevated",
    "GTFS Latitude": "40.884667",
    "GTFS Longitude": "-73.90087"
  },
  {
    "Station ID": "295",
    "Complex ID": "295",
    "GTFS Stop ID": "104",
    "Division": "IRT",
    "Line": "Broadway - 7Av",
    "Stop Name": "231 St",
    "Borough": "Bx",
    "Daytime Routes": "1",
    "Structure": "Elevated",
    "GTFS Latitude": "40.878856",
    "GTFS Longitude": "-73.904834"
  },
  {
    "Station ID": "296",
    "Complex ID": "296",
    "GTFS Stop ID": "106",
    "Division": "IRT",
    "Line": "Broadway - 7Av",
    "Stop Name": "Marble Hill - 225 St",
    "Borough": "M",
    "Daytime Routes": "1",
    "Structure": "Elevated",
    "GTFS Latitude": "40.874561",
    "GTFS Longitude": "-73.909831"
  },
  {
    "Station ID": "297",
    "Complex ID": "297",
    "GTFS Stop ID": "107",
    "Division": "IRT",
    "Line": "Broadway - 7Av",
    "Stop Name": "215 St",
    "Borough": "M",
    "Daytime Routes": "1",
    "Structure": "Elevated",
    "GTFS Latitude": "40.869444",
    "GTFS Longitude": "-73.915279"
  },
  {
    "Station ID": "298",
    "Complex ID": "298",
    "GTFS Stop ID": "108",
    "Division": "IRT",
    "Line": "Broadway - 7Av",
    "Stop Name": "207 St",
    "Borough": "M",
    "Daytime Routes": "1",
    "Structure": "Elevated",
    "GTFS Latitude": "40.864621",
    "GTFS Longitude": "-73.918822"
  },
  {
    "Station ID": "299",
    "Complex ID": "299",
    "GTFS Stop ID": "109",
    "Division": "IRT",
    "Line": "Broadway - 7Av",
    "Stop Name": "Dyckman St",
    "Borough": "M",
    "Daytime Routes": "1",
    "Structure": "Elevated",
    "GTFS Latitude": "40.860531",
    "GTFS Longitude": "-73.925536"
  },
  {
    "Station ID": "300",
    "Complex ID": "300",
    "GTFS Stop ID": "110",
    "Division": "IRT",
    "Line": "Broadway - 7Av",
    "Stop Name": "191 St",
    "Borough": "M",
    "Daytime Routes": "1",
    "Structure": "Subway",
    "GTFS Latitude": "40.855225",
    "GTFS Longitude": "-73.929412"
  },
  {
    "Station ID": "301",
    "Complex ID": "301",
    "GTFS Stop ID": "111",
    "Division": "IRT",
    "Line": "Broadway - 7Av",
    "Stop Name": "181 St",
    "Borough": "M",
    "Daytime Routes": "1",
    "Structure": "Subway",
    "GTFS Latitude": "40.849505",
    "GTFS Longitude": "-73.933596"
  },
  {
    "Station ID": "302",
    "Complex ID": "605",
    "GTFS Stop ID": "112",
    "Division": "IRT",
    "Line": "Broadway - 7Av",
    "Stop Name": "168 St - Washington Hts",
    "Borough": "M",
    "Daytime Routes": "1",
    "Structure": "Subway",
    "GTFS Latitude": "40.840556",
    "GTFS Longitude": "-73.940133"
  },
  {
    "Station ID": "303",
    "Complex ID": "303",
    "GTFS Stop ID": "113",
    "Division": "IRT",
    "Line": "Broadway - 7Av",
    "Stop Name": "157 St",
    "Borough": "M",
    "Daytime Routes": "1",
    "Structure": "Subway",
    "GTFS Latitude": "40.834041",
    "GTFS Longitude": "-73.94489"
  },
  {
    "Station ID": "304",
    "Complex ID": "304",
    "GTFS Stop ID": "114",
    "Division": "IRT",
    "Line": "Broadway - 7Av",
    "Stop Name": "145 St",
    "Borough": "M",
    "Daytime Routes": "1",
    "Structure": "Subway",
    "GTFS Latitude": "40.826551",
    "GTFS Longitude": "-73.95036"
  },
  {
    "Station ID": "305",
    "Complex ID": "305",
    "GTFS Stop ID": "115",
    "Division": "IRT",
    "Line": "Broadway - 7Av",
    "Stop Name": "137 St - City College",
    "Borough": "M",
    "Daytime Routes": "1",
    "Structure": "Subway",
    "GTFS Latitude": "40.822008",
    "GTFS Longitude": "-73.953676"
  },
  {
    "Station ID": "306",
    "Complex ID": "306",
    "GTFS Stop ID": "116",
    "Division": "IRT",
    "Line": "Broadway - 7Av",
    "Stop Name": "125 St",
    "Borough": "M",
    "Daytime Routes": "1",
    "Structure": "Elevated",
    "GTFS Latitude": "40.815581",
    "GTFS Longitude": "-73.958372"
  },
  {
    "Station ID": "307",
    "Complex ID": "307",
    "GTFS Stop ID": "117",
    "Division": "IRT",
    "Line": "Broadway - 7Av",
    "Stop Name": "116 St - Columbia University",
    "Borough": "M",
    "Daytime Routes": "1",
    "Structure": "Subway",
    "GTFS Latitude": "40.807722",
    "GTFS Longitude": "-73.96411"
  },
  {
    "Station ID": "308",
    "Complex ID": "308",
    "GTFS Stop ID": "118",
    "Division": "IRT",
    "Line": "Broadway - 7Av",
    "Stop Name": "Cathedral Pkwy",
    "Borough": "M",
    "Daytime Routes": "1",
    "Structure": "Subway",
    "GTFS Latitude": "40.803967",
    "GTFS Longitude": "-73.966847"
  },
  {
    "Station ID": "309",
    "Complex ID": "309",
    "GTFS Stop ID": "119",
    "Division": "IRT",
    "Line": "Broadway - 7Av",
    "Stop Name": "103 St",
    "Borough": "M",
    "Daytime Routes": "1",
    "Structure": "Subway",
    "GTFS Latitude": "40.799446",
    "GTFS Longitude": "-73.968379"
  },
  {
    "Station ID": "310",
    "Complex ID": "310",
    "GTFS Stop ID": "120",
    "Division": "IRT",
    "Line": "Broadway - 7Av",
    "Stop Name": "96 St",
    "Borough": "M",
    "Daytime Routes": "1 2 3",
    "Structure": "Subway",
    "GTFS Latitude": "40.793919",
    "GTFS Longitude": "-73.972323"
  },
  {
    "Station ID": "311",
    "Complex ID": "311",
    "GTFS Stop ID": "121",
    "Division": "IRT",
    "Line": "Broadway - 7Av",
    "Stop Name": "86 St",
    "Borough": "M",
    "Daytime Routes": "1",
    "Structure": "Subway",
    "GTFS Latitude": "40.788644",
    "GTFS Longitude": "-73.976218"
  },
  {
    "Station ID": "312",
    "Complex ID": "312",
    "GTFS Stop ID": "122",
    "Division": "IRT",
    "Line": "Broadway - 7Av",
    "Stop Name": "79 St",
    "Borough": "M",
    "Daytime Routes": "1",
    "Structure": "Subway",
    "GTFS Latitude": "40.783934",
    "GTFS Longitude": "-73.979917"
  },
  {
    "Station ID": "313",
    "Complex ID": "313",
    "GTFS Stop ID": "123",
    "Division": "IRT",
    "Line": "Broadway - 7Av",
    "Stop Name": "72 St",
    "Borough": "M",
    "Daytime Routes": "1 2 3",
    "Structure": "Subway",
    "GTFS Latitude": "40.778453",
    "GTFS Longitude": "-73.98197"
  },
  {
    "Station ID": "314",
    "Complex ID": "314",
    "GTFS Stop ID": "124",
    "Division": "IRT",
    "Line": "Broadway - 7Av",
    "Stop Name": "66 St - Lincoln Center",
    "Borough": "M",
    "Daytime Routes": "1",
    "Structure": "Subway",
    "GTFS Latitude": "40.77344",
    "GTFS Longitude": "-73.982209"
  },
  {
    "Station ID": "315",
    "Complex ID": "614",
    "GTFS Stop ID": "125",
    "Division": "IRT",
    "Line": "Broadway - 7Av",
    "Stop Name": "59 St - Columbus Circle",
    "Borough": "M",
    "Daytime Routes": "1",
    "Structure": "Subway",
    "GTFS Latitude": "40.768247",
    "GTFS Longitude": "-73.981929"
  },
  {
    "Station ID": "316",
    "Complex ID": "316",
    "GTFS Stop ID": "126",
    "Division": "IRT",
    "Line": "Broadway - 7Av",
    "Stop Name": "50 St",
    "Borough": "M",
    "Daytime Routes": "1",
    "Structure": "Subway",
    "GTFS Latitude": "40.761728",
    "GTFS Longitude": "-73.983849"
  },